web-scraper-order,address_raw,lat,lon,id,brand,geometry,closest_sup_geom,distance
1662023695-433,"Sunnenbergstrasse 15, 8633 Wolfhausen, ZH",47.25571441650391,8.804975509643555,338156406,Volg,POINT (8.804975509643555 47.25571441650391),POINT (8.8208789 47.2696707),2340.7091051754887
1662023720-634,"Blumenbergstrasse 7, 8633 Wolfhausen, ZH",47.254878997802734,8.793745994567871,956494681,Coop,POINT (8.793745994567871 47.254878997802734),POINT (8.7734457 47.2532311),2264.541955781327
1662023745-834,"8608 Bubikon, ZH",47.27738571166992,8.80030632019043,338156406,Volg,POINT (8.80030632019043 47.27738571166992),POINT (8.8208789 47.2696707),2439.5975242442487
1662023701-503,"8608 Bubikon, ZH",47.27738571166992,8.80030632019043,338156406,Volg,POINT (8.80030632019043 47.27738571166992),POINT (8.8208789 47.2696707),2439.5975242442487
1662023745-820,"Lavaterstr. 63, 8002 Zürich, ZH",47.36137771606445,8.53333854675293,262400822,Migros,POINT (8.53333854675293 47.36137771606445),POINT (8.5309446 47.3640724),398.3272772206011
1662023739-771,"Parkring 59, 8002 Zürich, ZH",47.36689758300781,8.528817176818848,262400822,Migros,POINT (8.528817176818848 47.36689758300781),POINT (8.5309446 47.3640724),390.482466465507
1662023720-640,"Flobotstrasse 2, 8044 Zürich, ZH",47.37957763671875,8.570284843444824,7050614306,Denner,POINT (8.570284843444824 47.37957763671875),POINT (8.5594892 47.3788745),1202.907892493703
1662023686-384,"Hinterbergstrasse 57, 8044 Zürich, ZH",47.38201522827149,8.556857109069824,995471959,Migros,POINT (8.556857109069824 47.38201522827149),POINT (8.5594679 47.3793846),409.81302665055864
1662023789-1164,"Nansenstrasse 7, 8050 Zürich, ZH",47.410762786865234,8.545214653015137,4896104283,Coop,POINT (8.545214653015137 47.410762786865234),POINT (8.5467405 47.4104766),172.56017097624496
1662023764-980,"Wehntalerstrasse 223, 8057 Zürich, ZH",47.40802001953125,8.529781341552734,452160401,Spar,POINT (8.529781341552734 47.40802001953125),POINT (8.5280301 47.4115497),434.2508374934995
1662023767-1007,"Baumackerstrasse 47, 8050 Zürich, ZH",47.40944290161133,8.542278289794922,4838591612,Lidl,POINT (8.542278289794922 47.40944290161133),POINT (8.5426618 47.4104082),114.39147979981043
1662023704-520,"Zwischenbächen 139, 8048 Zürich, ZH",47.380489349365234,8.4798002243042,4827130190,Migros,POINT (8.4798002243042 47.380489349365234),POINT (8.485718 47.3752033),878.0483266474052
1662023698-468,"Hallwylstrasse 84, 8004 Zürich, ZH",47.369815826416016,8.526166915893555,651273252,Coop,POINT (8.526166915893555 47.369815826416016),POINT (8.5305624 47.3732882),620.2293706133769
1662023789-1172,"Pfingstweidstrasse 104 E, 8005 Zürich, ZH",47.39086151123047,8.509053230285645,3503429368,Migros,POINT (8.509053230285645 47.39086151123047),POINT (8.5086792 47.3901062),92.89295815898804
1662023752-867,"Altwiesenstrasse 346, 8051 Zürich, ZH",47.39995956420898,8.590506553649902,2857736035,ALDI,POINT (8.590506553649902 47.39995956420898),POINT (8.5918795 47.405948),675.8793585576713
1662023761-945,"Badenerstrasse 250, 8004 Zürich, ZH",47.3759880065918,8.516037940979004,48932835,Migros,POINT (8.516037940979004 47.3759880065918),POINT (8.522895 47.37502),769.8651229021377
1662023774-1056,"Schöntalstrasse 27, 8004 Zürich, ZH",47.37080764770508,8.526028633117676,310789073,Denner,POINT (8.526028633117676 47.37080764770508),POINT (8.5234086 47.3748981),535.9169817693148
1662023761-941,"Am Wasser 161, 8049 Zürich, ZH",47.3994369506836,8.495816230773926,3582021500,Alnatura,POINT (8.495816230773926 47.3994369506836),POINT (8.4979498 47.4033485),491.2539209734661
1662023786-1149,"Freudenbergstrasse 94, 8044 Zürich, ZH",47.38413238525391,8.55653190612793,995471959,Migros,POINT (8.55653190612793 47.38413238525391),POINT (8.5594679 47.3793846),615.7263198496807
1662023755-909,"Lavaterstr. 63, 8002 Zürich, ZH",47.36137771606445,8.53333854675293,262400822,Migros,POINT (8.53333854675293 47.36137771606445),POINT (8.5309446 47.3640724),398.3272772206011
1662023714-590,"Meientalstrasse 65, 8048 Zürich, ZH",47.385841369628906,8.478418350219727,2330421254,Migros,POINT (8.478418350219727 47.385841369628906),POINT (8.4875671 47.3882833),1052.1466179563813
1662023801-1270,"Affolternstrasse 154, 8050 Zürich, ZH",47.4113655090332,8.532044410705566,452160401,Spar,POINT (8.532044410705566 47.4113655090332),POINT (8.5280301 47.4115497),446.8302835489629
1662023786-1131,"Seestrasse 361, 8038 Zürich, ZH",47.345306396484375,8.533795356750488,4328291097,Coop,POINT (8.533795356750488 47.345306396484375),POINT (8.5330722 47.3471862),221.80003903768346
1662023730-716,"Hohlstr. 509, 8048 Zürich, ZH",47.388973236083984,8.493876457214355,267344304,ALDI,POINT (8.493876457214355 47.388973236083984),POINT (8.4965956 47.3883215),310.7341725824775
1662023798-1239,"Feldblumenstrasse 10, 8048 Zürich, ZH",47.38809967041016,8.482545852661133,2330421254,Migros,POINT (8.482545852661133 47.38809967041016),POINT (8.4875671 47.3882833),558.7023423076452
1662023695-453,"Letzigraben 171, 8047 Zürich, ZH",47.37362289428711,8.495223999023438,7294728303,Denner,POINT (8.495223999023438 47.37362289428711),POINT (8.4973375 47.3765114),395.14467114121277
1662023695-436,"Fritz Fleiner-Weg 11, 8044 Zürich, ZH",47.38129806518555,8.56221866607666,995471959,Migros,POINT (8.56221866607666 47.38129806518555),POINT (8.5594679 47.3793846),371.2467157919298
1662023786-1150,"Uhlandstrasse 6, 8037 Zürich, ZH",47.39446640014648,8.5289306640625,480274029,Migros,POINT (8.5289306640625 47.39446640014648),POINT (8.5292465 47.3937084),90.44996636857698
1662023714-581,"Frohburgstrasse 303, 8057 Zürich, ZH",47.40309143066406,8.557792663574219,926957905,Coop,POINT (8.557792663574219 47.40309143066406),POINT (8.5491079 47.407567),1083.8667255691994
1662023807-1317,"Hätzlergasse 28, 8048 Zürich, ZH",47.39047622680664,8.468478202819824,1287601534,ALDI,POINT (8.468478202819824 47.39047622680664),POINT (8.4593802 47.3986111),1350.5317627112843
1662023701-483,"8048 Zürich, ZH",47.38191604614258,8.482671737670898,4310529908,Spar,POINT (8.482671737670898 47.38191604614258),POINT (8.4896864 47.3800378),806.8835203087742
1662023810-1322,"8001 Zürich, ZH",47.368934631347656,8.54139232635498,274824641,Lidl,POINT (8.54139232635498 47.368934631347656),POINT (8.5413011 47.3689582),10.469742412802791
1662023795-1221,"Carmenstrasse 16, 8032 Zürich, ZH",47.369754791259766,8.561036109924316,265776668,Coop,POINT (8.561036109924316 47.369754791259766),POINT (8.5595945 47.376417),749.8846805810596
1662023801-1263,"Forsterstrasse, 8044 Zürich, ZH",47.38007736206055,8.564464569091797,995471959,Migros,POINT (8.564464569091797 47.38007736206055),POINT (8.5594679 47.3793846),560.8015991781544
1662023727-676,"Im Trichtisal 7, 8053 Zürich, ZH",47.35511779785156,8.603344917297363,1835536288,VOI Migros Partner,POINT (8.603344917297363 47.35511779785156),POINT (8.593904 47.3599127),1174.7156944348683
1662023780-1096,"Staffelstrasse 13, 8045 Zürich, ZH",47.36064529418945,8.52066707611084,3021856041,Denner,POINT (8.52066707611084 47.36064529418945),POINT (8.5180317 47.3581515),401.3463990884736
1662023733-742,"Giessereistrasse 12, 8005 Zürich, ZH",47.39022064208984,8.518072128295898,7128726985,Lidl,POINT (8.518072128295898 47.39022064208984),POINT (8.5155148 47.3924303),374.0420213049558
1662023707-529,"Rebgasse 8, 8004 Zürich, ZH",47.374168395996094,8.530760765075684,651273252,Coop,POINT (8.530760765075684 47.374168395996094),POINT (8.5305624 47.3732882),99.27197145725708
1662023733-734,"Fellenbergstrasse 319, 8047 Zürich, ZH",47.3751335144043,8.487833023071289,659862626,Coop,POINT (8.487833023071289 47.3751335144043),POINT (8.4870255 47.3758956),122.82971567746662
1662023723-662,"Bucheggstrasse 157, 8057 Zürich, ZH",47.39902114868164,8.540755271911621,321361788,Coop,POINT (8.540755271911621 47.39902114868164),POINT (8.5404707 47.3957248),363.85121447930726
1662023795-1220,"Grimselstrasse 19, 8048 Zürich, ZH",47.385684967041016,8.489228248596191,2264702137,Coop,POINT (8.489228248596191 47.385684967041016),POINT (8.4889206 47.3874101),192.78381245466798
1662023813-1364,"Viktoriastrasse 29, 8057 Zürich, ZH",47.40406799316406,8.55045223236084,926957905,Coop,POINT (8.55045223236084 47.40406799316406),POINT (8.5491079 47.407567),412.7665614283444
1662023736-764,"Gladbachstr. 120, 8044 Zürich, ZH",47.37733840942383,8.558547019958496,265776668,Coop,POINT (8.558547019958496 47.37733840942383),POINT (8.5595945 47.376417),154.37302075405864
1662023793-1195,"Schaffhauserstrasse 456, 8052 Zürich, ZH",47.41805267333984,8.546833038330078,310133197,Migros,POINT (8.546833038330078 47.41805267333984),POINT (8.548286 47.4195222),228.50220806945757
1662023752-879,"Badenerstrasse  250, 8004 Zürich, ZH",47.3759880065918,8.516037940979004,48932835,Migros,POINT (8.516037940979004 47.3759880065918),POINT (8.522895 47.37502),769.8651229021377
1662023777-1058,"Hardturmstr. 5, 8005 Zürich, ZH",47.39119338989258,8.519919395446777,6734792611,VOI Migros Partner,POINT (8.519919395446777 47.39119338989258),POINT (8.5183575 47.3953281),486.72612428358656
1662023786-1137,"Glatttalstrasse 106, 8052 Zürich, ZH",47.43009185791016,8.54483699798584,310133197,Migros,POINT (8.54483699798584 47.43009185791016),POINT (8.548286 47.4195222),1223.8814134068805
1662023739-787,"Langgrütstrasse 104, 8047 Zürich, ZH",47.373294830322266,8.495368003845215,7294728303,Denner,POINT (8.495368003845215 47.373294830322266),POINT (8.4973375 47.3765114),416.04418935927384
1662023723-666,"8001 Zürich, ZH",47.368934631347656,8.54139232635498,274824641,Lidl,POINT (8.54139232635498 47.368934631347656),POINT (8.5413011 47.3689582),10.469742412802791
1662023807-1311,"Schaffhauserstrasse 473, 8052 Zürich, ZH",47.420040130615234,8.548195838928223,310133197,Migros,POINT (8.548195838928223 47.420040130615234),POINT (8.548286 47.4195222),57.82716226987333
1662023761-944,"Am Wasser 161, 8049 Zürich, ZH",47.3994369506836,8.495816230773926,3582021500,Alnatura,POINT (8.495816230773926 47.3994369506836),POINT (8.4979498 47.4033485),491.2539209734661
1662023804-1296,"Nordstrasse 135, 8037 Zürich, ZH",47.39029312133789,8.533413887023926,4841796184,Denner,POINT (8.533413887023926 47.39029312133789),POINT (8.5318296 47.3857631),528.372495334483
1662023692-412,"Im Isengrind 11, 8046 Zürich, ZH",47.42313766479492,8.511916160583496,452715384,Migros,POINT (8.511916160583496 47.42313766479492),POINT (8.5082174 47.4204198),508.41568952318653
1662023701-494,"Herrligweg 9, 8048 Zürich, ZH",47.389892578125,8.484477996826172,2330421254,Migros,POINT (8.484477996826172 47.389892578125),POINT (8.4875671 47.3882833),386.40738775566933
1662023749-856,"Flobotstrasse 2, 8044 Zürich, ZH",47.37957763671875,8.570284843444824,7050614306,Denner,POINT (8.570284843444824 47.37957763671875),POINT (8.5594892 47.3788745),1202.907892493703
1662023795-1219,"Maneggplatz 16, 8041 Zürich, ZH",47.339881896972656,8.520716667175293,3721143528,Migros,POINT (8.520716667175293 47.339881896972656),POINT (8.5190003 47.3359942),468.186917204368
1662023736-751,"Hinterbergstrasse 106, 8044 Zürich, ZH",47.3851318359375,8.559892654418945,995471959,Migros,POINT (8.559892654418945 47.3851318359375),POINT (8.5594679 47.3793846),633.7076924959293
1662023771-1013,"Mühlebachstr. 28, 8008 Zürich, ZH",47.3648567199707,8.550126075744629,271028298,Migros,POINT (8.550126075744629 47.3648567199707),POINT (8.5480408 47.3656781),248.84149636155774
1662023786-1152,"Widmerstrasse 19, 8038 Zürich, ZH",47.337650299072266,8.53615665435791,79977755,Coop,POINT (8.53615665435791 47.337650299072266),POINT (8.5305461 47.3400698),678.2289966163138
1662023789-1174,"Albisstrasse 118, 8038 Zürich, ZH",47.33719253540039,8.52980899810791,763322810,VOI Migros Partner,POINT (8.52980899810791 47.33719253540039),POINT (8.529589 47.3347288),272.0268588639644
1662023752-880,"Badenerstrasse 250, 8004 Zürich, ZH",47.3759880065918,8.516037940979004,48932835,Migros,POINT (8.516037940979004 47.3759880065918),POINT (8.522895 47.37502),769.8651229021377
1662023789-1165,"Im Altried 1f, 8051 Zürich, ZH",47.40413284301758,8.59100341796875,2857736035,ALDI,POINT (8.59100341796875 47.40413284301758),POINT (8.5918795 47.405948),222.07789255548303
1662023749-847,"Jenatschstrasse 5, 8002 Zürich, ZH",47.364044189453125,8.53388786315918,262400822,Migros,POINT (8.53388786315918 47.364044189453125),POINT (8.5309446 47.3640724),327.2906329332911
1662023771-1009,"Dörflistrasse  112, 8050 Zürich, ZH",47.41082382202149,8.547832489013672,4896104283,Coop,POINT (8.547832489013672 47.41082382202149),POINT (8.5467405 47.4104766),127.28492289554683
1662023755-912,"Austrasse 27, 8045 Zürich, ZH",47.36555099487305,8.519927024841309,352860119,Migros,POINT (8.519927024841309 47.36555099487305),POINT (8.5200924 47.3701218),502.97764432580834
1662023742-812,"Pfingstweidstrasse 98, 8005 Zürich, ZH",47.39064025878906,8.51033878326416,4827131027,Migros-Outlet,POINT (8.51033878326416 47.39064025878906),POINT (8.5087002 47.3900789),192.37618225452857
1662023761-950,"Albisstrasse 170, 8038 Zürich, ZH",47.3330307006836,8.529637336730957,763322810,VOI Migros Partner,POINT (8.529637336730957 47.3330307006836),POINT (8.529589 47.3347288),186.80889101461665
1662023774-1055,"Uhlandstrasse 6, 8037 Zürich, ZH",47.39446640014648,8.5289306640625,480274029,Migros,POINT (8.5289306640625 47.39446640014648),POINT (8.5292465 47.3937084),90.44996636857698
1662023742-799,"8048 Zürich, ZH",47.38191604614258,8.482671737670898,4310529908,Spar,POINT (8.482671737670898 47.38191604614258),POINT (8.4896864 47.3800378),806.8835203087742
1662023755-890,"Seefeldstr. 168, 8008 Zürich, ZH",47.35554504394531,8.556349754333496,270692983,Coop,POINT (8.556349754333496 47.35554504394531),POINT (8.5546463 47.3579403),324.4155196163995
1662023783-1110,"Grosswiesenstrasse 22, 8051 Zürich, ZH",47.403358459472656,8.583616256713867,2857736035,ALDI,POINT (8.583616256713867 47.403358459472656),POINT (8.5918795 47.405948),961.9318031423443
1662023742-801,"Albisriederplatz 1, 8003 Zürich, ZH",47.37791061401367,8.510482788085938,312838980,Migros,POINT (8.510482788085938 47.37791061401367),POINT (8.5087992 47.3791999),234.8380247769346
1662023723-654,"8046 Zürich, ZH",47.42034149169922,8.502178192138672,7591924440,Lidl,POINT (8.502178192138672 47.42034149169922),POINT (8.4993196 47.4223194),385.16139005523036
1662023777-1067,"Wehntalerstrasse 286, 8046 Zürich, ZH",47.41147232055664,8.525978088378906,312012094,Denner,POINT (8.525978088378906 47.41147232055664),POINT (8.5264773 47.4114322),55.68485153555339
1662023813-1357,"Herrligweg 9, 8048 Zürich, ZH",47.389892578125,8.484477996826172,2330421254,Migros,POINT (8.484477996826172 47.389892578125),POINT (8.4875671 47.3882833),386.40738775566933
1662023714-584,"8001 Zürich, ZH",47.368934631347656,8.54139232635498,274824641,Lidl,POINT (8.54139232635498 47.368934631347656),POINT (8.5413011 47.3689582),10.469742412802791
1662023771-1030,"Parkring 57, 8002 Zürich, ZH",47.36673355102539,8.528434753417969,262400822,Migros,POINT (8.528434753417969 47.36673355102539),POINT (8.5309446 47.3640724),404.3776088206209
1662023755-901,"Seestrasse 412, 8038 Zürich, ZH",47.34281921386719,8.535778999328613,4328291097,Coop,POINT (8.535778999328613 47.34281921386719),POINT (8.5330722 47.3471862),566.7378330997836
1662023767-1008,"Langwiesstrasse, 8050 Zürich, ZH",47.41059875488281,8.53764533996582,482763774,ALDI,POINT (8.53764533996582 47.41059875488281),POINT (8.5390336 47.4137334),377.6809732691295
1662023714-594,"8053 Zürich, ZH",47.35861587524414,8.578998565673828,6780925737,Aldi,POINT (8.578998565673828 47.35861587524414),POINT (8.5856114 47.3586275),735.3147386571409
1662023807-1315,"Witikonerstrasse 297, 8053 Zürich, ZH",47.35947799682617,8.585931777954102,1409406549,Migros,POINT (8.585931777954102 47.35947799682617),POINT (8.5856168 47.3592095),45.80568918560258
1662023730-710,"Soodstrasse 88, 8041 Zürich, ZH",47.325828552246094,8.518373489379883,3000097561,VOI Migros Partner,POINT (8.518373489379883 47.325828552246094),POINT (8.5152768 47.329774),553.909388536778
1662023723-658,"Letzigraben 120, 8047 Zürich, ZH",47.37661361694336,8.497147560119629,7294728303,Denner,POINT (8.497147560119629 47.37661361694336),POINT (8.4973375 47.3765114),23.925608024920024
1662023717-624,"Seestrasse 412, 8038 Zürich, ZH",47.34281921386719,8.535778999328613,4328291097,Coop,POINT (8.535778999328613 47.34281921386719),POINT (8.5330722 47.3471862),566.7378330997836
1662023739-791,"Badenerstrasse  250, 8004 Zürich, ZH",47.3759880065918,8.516037940979004,48932835,Migros,POINT (8.516037940979004 47.3759880065918),POINT (8.522895 47.37502),769.8651229021377
1662023795-1216,"Ziegelstrasse 20, 8038 Zürich, ZH",47.340782165527344,8.52829647064209,75749133,ALDI,POINT (8.52829647064209 47.340782165527344),POINT (8.5306007 47.3409666),257.0200607552978
1662023736-747,"8052 Zürich, ZH",47.41648864746094,8.548842430114746,310133197,Migros,POINT (8.548842430114746 47.41648864746094),POINT (8.548286 47.4195222),339.2578385699649
1662023777-1077,"Soodstrasse 90, 8041 Zürich, ZH",47.32560729980469,8.51819896697998,3000097561,VOI Migros Partner,POINT (8.51819896697998 47.32560729980469),POINT (8.5152768 47.329774),561.7232801390816
1662023686-362,"Hofwiesenstrasse 135, 8057 Zürich, ZH",47.39908981323242,8.532793998718262,480357406,Denner,POINT (8.532793998718262 47.39908981323242),POINT (8.5326286 47.3988666),30.6712640419235
1662023804-1295,"Wiesliacher 16, 8053 Zürich, ZH",47.354740142822266,8.599199295043945,1835536288,VOI Migros Partner,POINT (8.599199295043945 47.354740142822266),POINT (8.593904 47.3599127),818.6069146505973
1662023711-558,"Staffelstrasse 13, 8045 Zürich, ZH",47.36064529418945,8.52066707611084,3021856041,Denner,POINT (8.52066707611084 47.36064529418945),POINT (8.5180317 47.3581515),401.3463990884736
1662023780-1099,"Grosswiesenstrasse 2, 8051 Zürich, ZH",47.4034423828125,8.582525253295898,639144592,Migros,POINT (8.582525253295898 47.4034423828125),POINT (8.573042300000001 47.4037955),1055.1708441318565
1662023695-455,"Kasernenstrasse 11, 8004 Zürich, ZH",47.37397003173828,8.531791687011719,651273252,Coop,POINT (8.531791687011719 47.37397003173828),POINT (8.5305624 47.3732882),155.90346176103685
1662023783-1128,"Zwinglistrasse 35, 8004 Zürich, ZH",47.37862396240234,8.527950286865234,4423175779,ALDI,POINT (8.527950286865234 47.37862396240234),POINT (8.5332829 47.3808159),640.0775643956763
1662023707-546,"Rigistr. 52, 8006 Zürich, ZH",47.384803771972656,8.550923347473145,4827131028,Migros,POINT (8.550923347473145 47.384803771972656),POINT (8.5486931 47.3859928),280.3467163703443
1662023755-889,"Schwandenholzstrasse 232, 8046 Zürich, ZH",47.42425537109375,8.521562576293945,312012094,Denner,POINT (8.521562576293945 47.42425537109375),POINT (8.5264773 47.4114322),1512.3146024773926
1662023758-915,"Walchestr. 25, 8006 Zürich, ZH",47.381141662597656,8.541439056396484,4424654362,Migros,POINT (8.541439056396484 47.381141662597656),POINT (8.5404169 47.3782902),333.5162223557071
1662023745-832,"Calandastrasse 3, 8048 Zürich, ZH",47.38764953613281,8.489997863769531,2264702137,Coop,POINT (8.489997863769531 47.38764953613281),POINT (8.4889206 47.3874101),122.64641407405063
1662023701-488,"8006 Zürich, ZH",47.39287567138672,8.551520347595215,4827131028,Migros,POINT (8.551520347595215 47.39287567138672),POINT (8.5486931 47.3859928),819.530692259771
1662023689-395,"Billeterstrasse 15, 8044 Zürich, ZH",47.37915802001953,8.566191673278809,7050614306,Denner,POINT (8.566191673278809 47.37915802001953),POINT (8.5594892 47.3788745),745.9327446617689
1662023801-1262,"Giacomettistrasse 17, 8049 Zürich, ZH",47.40287399291992,8.505340576171875,3582021500,Alnatura,POINT (8.505340576171875 47.40287399291992),POINT (8.4979498 47.4033485),823.4718829247296
1662023752-871,"Kreuzstrasse 64, 8008 Zürich, ZH",47.36457824707031,8.552704811096191,271029206,Migros,POINT (8.552704811096191 47.36457824707031),POINT (8.5538464 47.3645956),126.95323450295972
1662023758-933,"Eggbühlstrasse 1, 8050 Zürich, ZH",47.41617584228516,8.544777870178223,6011935004,Coop,POINT (8.544777870178223 47.41617584228516),POINT (8.5470117 47.4128725),440.04401288659164
1662023695-445,"Eibenstrasse 6, 8045 Zürich, ZH",47.36368560791016,8.521366119384766,3021856041,Denner,POINT (8.521366119384766 47.36368560791016),POINT (8.5180317 47.3581515),712.62422911471
1662023755-905,"Butzenstrasse 2, 8038 Zürich, ZH",47.34154510498047,8.530033111572266,75749133,ALDI,POINT (8.530033111572266 47.34154510498047),POINT (8.5306007 47.3409666),89.61104361231186
1662023795-1223,"Eggbühlstrasse 24, 8050 Zürich, ZH",47.41639709472656,8.543224334716797,766705800,Coop,POINT (8.543224334716797 47.41639709472656),POINT (8.5405759 47.4134214),440.21975064505193
1662023701-482,"Limmatquai 70, 8001 Zürich, ZH",47.37271881103516,8.542970657348633,39947904,Coop,POINT (8.542970657348633 47.37271881103516),POINT (8.5421608 47.3767316),450.3468294392226
1662023733-740,"Affolternstrasse 103, 8050 Zürich, ZH",47.41026306152344,8.536553382873535,482763774,ALDI,POINT (8.536553382873535 47.41026306152344),POINT (8.5390336 47.4137334),470.8324899223194
1662023793-1182,"Zürcherstrasse 5, 8102 Oberengstringen, ZH",47.405029296875,8.47723388671875,4827131029,VOI Migros Partner,POINT (8.47723388671875 47.405029296875),POINT (8.4865224 47.396145),1421.774232980678
1662023767-994,"Forchstr. 26, 8008 Zürich, ZH",47.363990783691406,8.556114196777344,7085739339,Alnatura,POINT (8.556114196777344 47.363990783691406),POINT (8.5539732 47.3645244),245.19205729618685
1662023739-789,"Langgrütstrasse 96, 8047 Zürich, ZH",47.37327575683594,8.495824813842773,7294728303,Denner,POINT (8.495824813842773 47.37327575683594),POINT (8.4973375 47.3765114),393.5901071176603
1662023774-1053,"Scheffelstrasse 11, 8037 Zürich, ZH",47.39439010620117,8.529122352600098,480274029,Migros,POINT (8.529122352600098 47.39439010620117),POINT (8.5292465 47.3937084),76.2243856448241
1662023695-456,"8005 Zürich, ZH",47.38420486450195,8.531729698181152,321947542,Denner,POINT (8.531729698181152 47.38420486450195),POINT (8.5317649 47.3841236),9.755880409483186
1662023789-1167,"Magdalenenstrasse 9, 8050 Zürich, ZH",47.40725326538086,8.551426887512207,926957905,Coop,POINT (8.551426887512207 47.40725326538086),POINT (8.5491079 47.407567),260.15708184276656
1662023767-988,"Kreuzstrasse 55, 8008 Zürich, ZH",47.364540100097656,8.552120208740234,271029206,Migros,POINT (8.552120208740234 47.364540100097656),POINT (8.5538464 47.3645956),192.04070048736034
1662023742-803,"Emil Oprecht-Str. 1, 8050 Zürich, ZH",47.41197967529297,8.541033744812012,766705800,Coop,POINT (8.541033744812012 47.41197967529297),POINT (8.5405759 47.4134214),166.50846701901028
1662023704-517,"Schaffhauserstrasse 475, 8052 Zürich, ZH",47.42020034790039,8.54835319519043,310133197,Migros,POINT (8.54835319519043 47.42020034790039),POINT (8.548286 47.4195222),74.94230190410897
1662023789-1162,"Seefeldstr. 117, 8008 Zürich, ZH",47.35837936401367,8.554369926452637,270958272,Migros,POINT (8.554369926452637 47.35837936401367),POINT (8.5540739 47.3583667),32.94608093889526
1662023755-893,"Röntgenstrasse 48, 8005 Zürich, ZH",47.38470458984375,8.527143478393555,470217716,Coop,POINT (8.527143478393555 47.38470458984375),POINT (8.527125 47.3847889),9.49618371846166
1662023789-1170,"Dennlerstr. 24, 8047 Zürich, ZH",47.38156127929688,8.497806549072266,4868938542,ALDI,POINT (8.497806549072266 47.38156127929688),POINT (8.4978671 47.3838311),249.71242696159712
1662023704-515,"Jungholzstrasse 20, 8050 Zürich, ZH",47.41342544555664,8.54434871673584,6011935004,Coop,POINT (8.54434871673584 47.41342544555664),POINT (8.5470117 47.4128725),302.28821546528786
1662023698-466,"Waffenplatzstrasse 80, 8002 Zürich, ZH",47.35564804077149,8.52674674987793,4896104281,Coop,POINT (8.52674674987793 47.35564804077149),POINT (8.5231263 47.3574511),448.75438037122706
1662023720-643,"Badenerstrasse 595, 8048 Zürich, ZH",47.3852653503418,8.49389934539795,7403555052,Denner,POINT (8.49389934539795 47.3852653503418),POINT (8.4924667 47.3857952),169.62565537094267
1662023764-983,"Am Wasser 161, 8049 Zürich, ZH",47.3994369506836,8.495816230773926,3582021500,Alnatura,POINT (8.495816230773926 47.3994369506836),POINT (8.4979498 47.4033485),491.2539209734661
1662023745-821,"Ackerstrasse 55, 8005 Zürich, ZH",47.383338928222656,8.532877922058105,321947542,Denner,POINT (8.532877922058105 47.383338928222656),POINT (8.5317649 47.3841236),150.872068115049
1662023795-1207,"Imbisbühlstrasse 108, 8049 Zürich, ZH",47.40587615966797,8.487546920776367,4827131029,VOI Migros Partner,POINT (8.487546920776367 47.40587615966797),POINT (8.4865224 47.396145),1076.2525927310733
1662023692-409,"8055 Zürich, ZH",47.36378860473633,8.509098052978516,1702309790,Migros,POINT (8.509098052978516 47.36378860473633),POINT (8.5084445 47.3702412),713.3100840896494
1662023745-836,"Neudorfstr. 17, 8050 Zürich, ZH",47.41176223754883,8.547621726989746,6011935004,Coop,POINT (8.547621726989746 47.41176223754883),POINT (8.5470117 47.4128725),139.663041903103
1662023789-1173,"Gerhardstrasse 8, 8003 Zürich, ZH",47.37050247192383,8.523018836975098,352860119,Migros,POINT (8.523018836975098 47.37050247192383),POINT (8.5200924 47.3701218),328.08651600332604
1662023783-1108,"Karstlernstrasse 14, 8048 Zürich, ZH",47.3899040222168,8.47831916809082,2330421254,Migros,POINT (8.47831916809082 47.3899040222168),POINT (8.4875671 47.3882833),1043.656800832727
1662023767-995,"Kreuzstrasse 55, 8008 Zürich, ZH",47.364540100097656,8.552120208740234,271029206,Migros,POINT (8.552120208740234 47.364540100097656),POINT (8.5538464 47.3645956),192.04070048736034
1662023698-458,"Scheffelstrasse 11, 8037 Zürich, ZH",47.39439010620117,8.529122352600098,480274029,Migros,POINT (8.529122352600098 47.39439010620117),POINT (8.5292465 47.3937084),76.2243856448241
1662023742-804,"Emil Oprecht-Str. 1, 8050 Zürich, ZH",47.41197967529297,8.541033744812012,766705800,Coop,POINT (8.541033744812012 47.41197967529297),POINT (8.5405759 47.4134214),166.50846701901028
1662023701-493,"Herrligweg 9, 8048 Zürich, ZH",47.389892578125,8.484477996826172,2330421254,Migros,POINT (8.484477996826172 47.389892578125),POINT (8.4875671 47.3882833),386.40738775566933
1662023745-837,"Elisabethenstrasse 28, 8004 Zürich, ZH",47.37369155883789,8.521880149841309,48932835,Migros,POINT (8.521880149841309 47.37369155883789),POINT (8.522895 47.37502),184.5942680843065
1662023752-870,"Spindelstrasse 12, 8041 Zürich, ZH",47.33975982666016,8.517643928527832,3721143528,Migros,POINT (8.517643928527832 47.33975982666016),POINT (8.5190003 47.3359942),440.7102942459872
1662023730-709,"Lehfrauenweg 10, 8053 Zürich, ZH",47.359649658203125,8.589973449707031,1835536288,VOI Migros Partner,POINT (8.589973449707031 47.359649658203125),POINT (8.593904 47.3599127),438.01306594393424
1662023714-577,"Bachtobelstrasse 23, 8045 Zürich, ZH",47.36090850830078,8.516180038452148,451720086,Migros,POINT (8.516180038452148 47.36090850830078),POINT (8.5173007 47.3580599),337.1329262035985
1662023786-1148,"Uhlandstrasse 6, 8037 Zürich, ZH",47.39446640014648,8.5289306640625,480274029,Migros,POINT (8.5289306640625 47.39446640014648),POINT (8.5292465 47.3937084),90.44996636857698
1662023793-1189,"Herrligstrasse 36, 8048 Zürich, ZH",47.38893127441406,8.48462200164795,2330421254,Migros,POINT (8.48462200164795 47.38893127441406),POINT (8.4875671 47.3882833),335.14401270726927
1662023786-1142,"Hubenstr. 14, 8057 Zürich, ZH",47.4035758972168,8.558526039123535,926957905,Coop,POINT (8.558526039123535 47.4035758972168),POINT (8.5491079 47.407567),1135.4839654177797
1662023795-1209,"Gustav-Gull-Platz 11, 8004 Zürich, ZH",47.379425048828125,8.5318021774292,4423175779,ALDI,POINT (8.5318021774292 47.379425048828125),POINT (8.5332829 47.3808159),224.72439591278925
1662023813-1363,"Nelkenstrasse 20, 8006 Zürich, ZH",47.38184356689453,8.546545028686523,4827131028,Migros,POINT (8.546545028686523 47.38184356689453),POINT (8.5486931 47.3859928),514.9900245280711
1662023780-1104,"Gustav-Gull-Platz 11, 8004 Zürich, ZH",47.379425048828125,8.5318021774292,4423175779,ALDI,POINT (8.5318021774292 47.379425048828125),POINT (8.5332829 47.3808159),224.72439591278925
1662023723-657,"Dörflistrasse 112, 8050 Zürich, ZH",47.41082382202149,8.547832489013672,4896104283,Coop,POINT (8.547832489013672 47.41082382202149),POINT (8.5467405 47.4104766),127.28492289554683
1662023736-753,"Schwandenholzstrasse 260, 8046 Zürich, ZH",47.42427444458008,8.519989967346191,452715384,Migros,POINT (8.519989967346191 47.42427444458008),POINT (8.5082174 47.4204198),1375.9712324280745
1662023739-788,"Letzigraben 165, 8047 Zürich, ZH",47.37402725219727,8.495600700378418,7294728303,Denner,POINT (8.495600700378418 47.37402725219727),POINT (8.4973375 47.3765114),334.560994575484
1662023795-1218,"Maneggplatz 40, 8041 Zürich, ZH",47.33966827392578,8.520100593566895,3721143528,Migros,POINT (8.520100593566895 47.33966827392578),POINT (8.5190003 47.3359942),422.14842866797585
1662023745-833,"Jonas-Furrer-Str. 21, 8046 Zürich, ZH",47.42037582397461,8.508238792419434,452715384,Migros,POINT (8.508238792419434 47.42037582397461),POINT (8.5082174 47.4204198),5.389449897074977
1662023714-591,"Schulhausstrasse 47, 8002 Zürich, ZH",47.36001968383789,8.528043746948242,262400822,Migros,POINT (8.528043746948242 47.36001968383789),POINT (8.5309446 47.3640724),550.1412585187581
1662023793-1187,"Hagenholzstrasse 66, 8050 Zürich, ZH",47.4133186340332,8.556182861328125,1052078781,ALDI,POINT (8.556182861328125 47.4133186340332),POINT (8.5568084 47.4193147),662.9700779785638
1662023767-999,"Holderbachweg 8, 8046 Zürich, ZH",47.41841506958008,8.504903793334961,276363821,Coop,POINT (8.504903793334961 47.41841506958008),POINT (8.5056989 47.4188884),102.59715849291042
1662023801-1268,"Jungstrasse 18, 8050 Zürich, ZH",47.41508865356445,8.543237686157227,766705800,Coop,POINT (8.543237686157227 47.41508865356445),POINT (8.5405759 47.4134214),348.15757562819925
1662023739-790,"Badenerstrasse  250, 8004 Zürich, ZH",47.3759880065918,8.516037940979004,48932835,Migros,POINT (8.516037940979004 47.3759880065918),POINT (8.522895 47.37502),769.8651229021377
1662023749-852,"Altstetterstrasse 178, 8048 Zürich, ZH",47.385684967041016,8.485180854797363,2330421254,Migros,POINT (8.485180854797363 47.385684967041016),POINT (8.4875671 47.3882833),389.9514095634611
1662023786-1147,"Etzelstrasse 6, 8038 Zürich, ZH",47.34442138671875,8.530671119689941,1328399518,Denner,POINT (8.530671119689941 47.34442138671875),POINT (8.5307182 47.3444645),7.062768419836408
1662023786-1145,"Heliosstrasse 12, 8032 Zürich, ZH",47.36385345458984,8.559439659118652,7085739339,Alnatura,POINT (8.559439659118652 47.36385345458984),POINT (8.5539732 47.3645244),612.3032943548426
1662023711-564,"Baurstrasse 29, 8008 Zürich, ZH",47.35592269897461,8.554497718811035,270692983,Coop,POINT (8.554497718811035 47.35592269897461),POINT (8.5546463 47.3579403),222.46539005250008
1662023798-1238,"Feldblumenstrasse 10, 8048 Zürich, ZH",47.38809967041016,8.482545852661133,2330421254,Migros,POINT (8.482545852661133 47.38809967041016),POINT (8.4875671 47.3882833),558.7023423076452
1662023723-667,"8001 Zürich, ZH",47.368934631347656,8.54139232635498,274824641,Lidl,POINT (8.54139232635498 47.368934631347656),POINT (8.5413011 47.3689582),10.469742412802791
1662023810-1333,"Maneggplatz 14, 8041 Zürich, ZH",47.34020614624024,8.520726203918457,3721143528,Migros,POINT (8.520726203918457 47.34020614624024),POINT (8.5190003 47.3359942),501.36271725635856
1662023692-431,"8057 Zürich, ZH",47.393585205078125,8.539556503295898,321361643,Migros,POINT (8.539556503295898 47.393585205078125),POINT (8.5384284 47.3925525),169.20580270119726
1662023810-1338,"Feldstrasse 40, 8004 Zürich, ZH",47.3758544921875,8.521323204040527,48932835,Migros,POINT (8.521323204040527 47.3758544921875),POINT (8.522895 47.37502),197.4023742976262
1662023698-472,"Badenerstrasse 595, 8048 Zürich, ZH",47.3852653503418,8.49389934539795,7403555052,Denner,POINT (8.49389934539795 47.3852653503418),POINT (8.4924667 47.3857952),169.62565537094267
1662023801-1260,"am Oeschbrig 5, 8053 Zürich, ZH",47.35725784301758,8.599966049194336,1835536288,VOI Migros Partner,POINT (8.599966049194336 47.35725784301758),POINT (8.593904 47.3599127),734.553487701787
1662023739-786,"Letzigraben 165, 8047 Zürich, ZH",47.37402725219727,8.495600700378418,7294728303,Denner,POINT (8.495600700378418 47.37402725219727),POINT (8.4973375 47.3765114),334.560994575484
1662023761-943,"Am Wasser 161, 8049 Zürich, ZH",47.3994369506836,8.495816230773926,3582021500,Alnatura,POINT (8.495816230773926 47.3994369506836),POINT (8.4979498 47.4033485),491.2539209734661
1662023739-785,"Letzigraben 165, 8047 Zürich, ZH",47.37402725219727,8.495600700378418,7294728303,Denner,POINT (8.495600700378418 47.37402725219727),POINT (8.4973375 47.3765114),334.560994575484
1662023793-1194,"Mühlebachstrasse 76, 8008 Zürich, ZH",47.36259078979492,8.553037643432617,7085739339,Alnatura,POINT (8.553037643432617 47.36259078979492),POINT (8.5539732 47.3645244),236.70173581741008
1662023761-949,"Soodstrasse 90, 8041 Zürich, ZH",47.32560729980469,8.51819896697998,3000097561,VOI Migros Partner,POINT (8.51819896697998 47.32560729980469),POINT (8.5152768 47.329774),561.7232801390816
1662023795-1206,"Bühlstrasse 45C, 8055 Zürich, ZH",47.36454772949219,8.51507568359375,451720086,Migros,POINT (8.51507568359375 47.36454772949219),POINT (8.5173007 47.3580599),755.1399715740348
1662023714-585,"Riedenhaldenstrasse 254, 8046 Zürich, ZH",47.41985702514648,8.510608673095703,452715384,Migros,POINT (8.510608673095703 47.41985702514648),POINT (8.5082174 47.4204198),273.00489648274845
1662023755-907,"Oerlikonerstrasse 87, 8057 Zürich, ZH",47.4050407409668,8.546213150024414,1004502006,Spar,POINT (8.546213150024414 47.4050407409668),POINT (8.5465484 47.4028716),241.4147034104544
1662023714-579,"Bachmattstr. 59, 8048 Zürich, ZH",47.389041900634766,8.483692169189453,2330421254,Migros,POINT (8.483692169189453 47.389041900634766),POINT (8.4875671 47.3882833),438.8754462184283
1662023689-385,"8053 Zürich, ZH",47.35861587524414,8.578998565673828,6780925737,Aldi,POINT (8.578998565673828 47.35861587524414),POINT (8.5856114 47.3586275),735.3147386571409
1662023736-756,"Birmensdorferstrasse 598, 8055 Zürich, ZH",47.36793518066406,8.488553047180176,622099197,VOI Migros Partner,POINT (8.488553047180176 47.36793518066406),POINT (8.4927577 47.3704893),545.4269077769268
1662023752-869,"Schrennengasse 14, 8003 Zürich, ZH",47.36940383911133,8.516093254089355,352860119,Migros,POINT (8.516093254089355 47.36940383911133),POINT (8.5200924 47.3701218),451.6393326875115
1662023704-528,"Redingstrasse 3, 8038 Zürich, ZH",47.34896087646485,8.526168823242188,83330862,Migros,POINT (8.526168823242188 47.34896087646485),POINT (8.5299814 47.3447487),627.911718139629
1662023711-559,"Birmensdorferstrasse 596, 8055 Zürich, ZH",47.3679084777832,8.488808631896973,622099197,VOI Migros Partner,POINT (8.488808631896973 47.3679084777832),POINT (8.4927577 47.3704893),522.8594980730462
1662023749-843,"Ottikerstrasse 11, 8006 Zürich, ZH",47.385704040527344,8.542648315429688,4827131028,Migros,POINT (8.542648315429688 47.385704040527344),POINT (8.5486931 47.3859928),672.8989384264565
1662023780-1102,"Zeltweg 68, 8032 Zürich, ZH",47.36709213256836,8.552876472473145,271029206,Migros,POINT (8.552876472473145 47.36709213256836),POINT (8.5538464 47.3645956),294.9404891589946
1662023804-1280,"Hallenstrasse 8, 8008 Zürich, ZH",47.36317825317383,8.54866886138916,271028298,Migros,POINT (8.54866886138916 47.36317825317383),POINT (8.5480408 47.3656781),283.6150389156281
1662023701-489,"8057 Zürich, ZH",47.393585205078125,8.539556503295898,321361643,Migros,POINT (8.539556503295898 47.393585205078125),POINT (8.5384284 47.3925525),169.20580270119726
1662023801-1267,"Färberstrasse 27, 8008 Zürich, ZH",47.36214065551758,8.549431800842285,271028298,Migros,POINT (8.549431800842285 47.36214065551758),POINT (8.5480408 47.3656781),418.5995833108929
1662023780-1094,"Stampfenbachplatz 4, 8006 Zürich, ZH",47.380401611328125,8.542487144470215,4424654362,Migros,POINT (8.542487144470215 47.380401611328125),POINT (8.5404169 47.3782902),326.9514100354784
1662023764-975,"Wehrenbachhalde 39, 8053 Zürich, ZH",47.35622787475586,8.580233573913574,6780925737,Aldi,POINT (8.580233573913574 47.35622787475586),POINT (8.5856114 47.3586275),653.6045322543625
1662023761-948,"Seefeldstr. 168, 8008 Zürich, ZH",47.35554504394531,8.556349754333496,270692983,Coop,POINT (8.556349754333496 47.35554504394531),POINT (8.5546463 47.3579403),324.4155196163995
1662023749-859,"Käferholzstrasse 60, 8057 Zürich, ZH",47.40255355834961,8.532090187072754,480357406,Denner,POINT (8.532090187072754 47.40255355834961),POINT (8.5326286 47.3988666),409.8300531461431
1662023686-383,"Hinterbergstrasse 57, 8044 Zürich, ZH",47.38201522827149,8.556857109069824,995471959,Migros,POINT (8.556857109069824 47.38201522827149),POINT (8.5594679 47.3793846),409.81302665055864
1662023804-1287,"Höschgasse 46, 8008 Zürich, ZH",47.357513427734375,8.55413818359375,270692983,Coop,POINT (8.55413818359375 47.357513427734375),POINT (8.5546463 47.3579403),73.45352100461733
1662023733-739,"Imbisbühlstrasse 110, 8049 Zürich, ZH",47.40596771240234,8.487181663513184,4827131029,VOI Migros Partner,POINT (8.487181663513184 47.40596771240234),POINT (8.4865224 47.396145),1082.7599529356607
1662023807-1306,"Feldstrasse 39, 8004 Zürich, ZH",47.3762092590332,8.521111488342285,48932835,Migros,POINT (8.521111488342285 47.3762092590332),POINT (8.522895 47.37502),237.55650348715722
1662023786-1146,"Beckhammer 19, 8057 Zürich, ZH",47.40105819702149,8.541216850280762,321361788,Coop,POINT (8.541216850280762 47.40105819702149),POINT (8.5404707 47.3957248),592.3096401367549
1662023761-939,"Grosswiesenstrasse 20, 8051 Zürich, ZH",47.40337371826172,8.583436012268066,2857736035,ALDI,POINT (8.583436012268066 47.40337371826172),POINT (8.5918795 47.405948),980.6084444331485
1662023752-882,"Soodstrasse 90, 8041 Zürich, ZH",47.32560729980469,8.51819896697998,3000097561,VOI Migros Partner,POINT (8.51819896697998 47.32560729980469),POINT (8.5152768 47.329774),561.7232801390816
1662023711-555,"Balberstrasse 68, 8038 Zürich, ZH",47.33802795410156,8.526716232299805,79977755,Coop,POINT (8.526716232299805 47.33802795410156),POINT (8.5305461 47.3400698),481.4281332016565
1662023780-1103,"Am Wasser 161, 8049 Zürich, ZH",47.3994369506836,8.495816230773926,3582021500,Alnatura,POINT (8.495816230773926 47.3994369506836),POINT (8.4979498 47.4033485),491.2539209734661
1662023761-946,"Am Wasser 161, 8049 Zürich, ZH",47.3994369506836,8.495816230773926,3582021500,Alnatura,POINT (8.495816230773926 47.3994369506836),POINT (8.4979498 47.4033485),491.2539209734661
1662023798-1237,"Im Holzerhurd 60, 8046 Zürich, ZH",47.42334747314453,8.496809005737305,1027136881,Coop,POINT (8.496809005737305 47.42334747314453),POINT (8.4969763 47.4256283),251.52149649334996
1662023695-454,"Rosmarinweg 3, 8057 Zürich, ZH",47.40321350097656,8.550189971923828,1004502006,Spar,POINT (8.550189971923828 47.40321350097656),POINT (8.5465484 47.4028716),406.66585093151866
1662023774-1047,"Hohenklingenstrasse 45, 8049 Zürich, ZH",47.40235137939453,8.490530014038086,1835590613,Migros,POINT (8.490530014038086 47.40235137939453),POINT (8.4974554 47.4038519),787.5506613816593
1662023755-898,"Höschgasse 76, 8008 Zürich, ZH",47.35784912109375,8.556351661682129,270692983,Coop,POINT (8.556351661682129 47.35784912109375),POINT (8.5546463 47.3579403),189.89241984849633
1662023758-919,"Baslerstrasse 31, 8048 Zürich, ZH",47.384037017822266,8.5020751953125,4838594390,Denner,POINT (8.5020751953125 47.384037017822266),POINT (8.4995797 47.3859997),351.5490910319356
1662023793-1192,"Neunbrunnenstr. 153, 8050 Zürich, ZH",47.41574478149414,8.532227516174316,452160401,Spar,POINT (8.532227516174316 47.41574478149414),POINT (8.5280301 47.4115497),656.2367257238473
1662023727-688,"Sihlhallenstrasse 28, 8004 Zürich, ZH",47.38012313842773,8.526421546936035,470217716,Coop,POINT (8.526421546936035 47.38012313842773),POINT (8.527125 47.3847889),519.0027277877069
1662023761-942,"Badenerstrasse 250, 8004 Zürich, ZH",47.3759880065918,8.516037940979004,48932835,Migros,POINT (8.516037940979004 47.3759880065918),POINT (8.522895 47.37502),769.8651229021377
1662023793-1184,"Dörflistrasse 112, 8050 Zürich, ZH",47.41082382202149,8.547832489013672,4896104283,Coop,POINT (8.547832489013672 47.41082382202149),POINT (8.5467405 47.4104766),127.28492289554683
1662023698-469,"Klosbachstrasse 44, 8032 Zürich, ZH",47.36623764038086,8.557329177856445,7085739339,Alnatura,POINT (8.557329177856445 47.36623764038086),POINT (8.5539732 47.3645244),418.02219133240123
1662023730-700,"Birchstrasse 98, 8050 Zürich, ZH",47.407814025878906,8.536985397338867,482763774,ALDI,POINT (8.536985397338867 47.407814025878906),POINT (8.5390336 47.4137334),689.6039580144045
1662023692-415,"Badenerstrasse 701, 8048 Zürich, ZH",47.387939453125,8.483872413635254,2330421254,Migros,POINT (8.483872413635254 47.387939453125),POINT (8.4875671 47.3882833),412.5670977521439
1662023714-580,"Wehntalerstrasse 402, 8046 Zürich, ZH",47.41493225097656,8.516685485839844,452715388,Denner,POINT (8.516685485839844 47.41493225097656),POINT (8.5080891 47.4199085),1101.4379406454486
1662023764-973,"Forchstrasse 261, 8032 Zürich, ZH",47.364723205566406,8.55510139465332,7085739339,Alnatura,POINT (8.55510139465332 47.364723205566406),POINT (8.5539732 47.3645244),127.33990847150774
1662023745-835,"Im Heuried 52, 8055 Zürich, ZH",47.36848831176758,8.508621215820312,1702309790,Migros,POINT (8.508621215820312 47.36848831176758),POINT (8.5084445 47.3702412),193.76597069667716
1662023783-1112,"Bachmattstrasse 66, 8048 Zürich, ZH",47.389068603515625,8.483251571655273,2330421254,Migros,POINT (8.483251571655273 47.389068603515625),POINT (8.4875671 47.3882833),487.57496836348247
1662023742-807,"Langfurrenstrasse 5c, 8623 Wetzikon ZH, ZH",47.32863235473633,8.810400009155273,6399981854,Denner,POINT (8.810400009155273 47.32863235473633),POINT (8.8076053 47.3315245),444.48407254297825
1662023755-900,"8620 Wetzikon ZH, ZH",47.31372833251953,8.828516006469727,8919699600,Spar,POINT (8.828516006469727 47.31372833251953),POINT (8.8428157 47.3010805),2111.751631644317
1662023793-1186,"Rosenstrasse 1, 8623 Wetzikon ZH, ZH",47.33300018310547,8.808183670043945,6399981854,Denner,POINT (8.808183670043945 47.33300018310547),POINT (8.8076053 47.3315245),174.44123222420706
1662023739-781,"Langfurrenstrasse 5c, 8623 Wetzikon ZH, ZH",47.32863235473633,8.810400009155273,6399981854,Denner,POINT (8.810400009155273 47.32863235473633),POINT (8.8076053 47.3315245),444.48407254297825
1662023767-1004,"Spitalstr. 157, 8620 Wetzikon ZH, ZH",47.32657241821289,8.808747291564941,6399981854,Denner,POINT (8.808747291564941 47.32657241821289),POINT (8.8076053 47.3315245),558.7724282417222
1662023695-437,"Pappelnstr. 14, 8620 Wetzikon ZH, ZH",47.32851409912109,8.80092716217041,2757540857,Migros,POINT (8.80092716217041 47.32851409912109),POINT (8.7997978 47.3280334),136.23633815260843
1662023752-865,"Langfurrenstrasse 5a, 8623 Wetzikon ZH, ZH",47.3288459777832,8.80976390838623,6399981854,Denner,POINT (8.80976390838623 47.3288459777832),POINT (8.8076053 47.3315245),379.7892974634474
1662023698-478,"Kirchgasse 4, 8620 Wetzikon ZH, ZH",47.32634353637695,8.797727584838867,5111142678,Coop,POINT (8.797727584838867 47.32634353637695),POINT (8.7975201 47.326349),23.079071900661436
1662023739-773,"Langfurrenstrasse 5b, 8623 Wetzikon ZH, ZH",47.3287239074707,8.810142517089844,6399981854,Denner,POINT (8.810142517089844 47.3287239074707),POINT (8.8076053 47.3315245),417.48995685010266
1662023689-388,"8620 Wetzikon ZH, ZH",47.31372833251953,8.828516006469727,8919699600,Spar,POINT (8.828516006469727 47.31372833251953),POINT (8.8428157 47.3010805),2111.751631644317
1662023807-1305,"Weststrasse 66, 8620 Wetzikon ZH, ZH",47.32967376708984,8.796716690063477,5111142678,Coop,POINT (8.796716690063477 47.32967376708984),POINT (8.7975201 47.326349),376.11172076167594
1662023767-1005,"Bahnhofstrasse 117, 8620 Wetzikon ZH, ZH",47.32510757446289,8.798135757446289,5111142678,Coop,POINT (8.798135757446289 47.32510757446289),POINT (8.7975201 47.326349),152.62974314959524
1662023701-485,"Schneggenstr. 24, 8620 Wetzikon ZH, ZH",47.32073593139648,8.8002290725708,5111142678,Coop,POINT (8.8002290725708 47.32073593139648),POINT (8.7975201 47.326349),686.423661129024
1662023764-970,"Guyer-Zeller-Strasse 1, 8620 Wetzikon ZH, ZH",47.314697265625,8.793615341186523,5092117845,Denner,POINT (8.793615341186523 47.314697265625),POINT (8.7922154 47.3199178),594.4194441329979
1662023761-959,"Weststrasse 68, 8620 Wetzikon ZH, ZH",47.3298454284668,8.796719551086426,5111142678,Coop,POINT (8.796719551086426 47.3298454284668),POINT (8.7975201 47.326349),394.38873357729193
1662023801-1264,"Messikommerstrasse 37, 8620 Wetzikon ZH, ZH",47.32208251953125,8.792054176330566,5092117845,Denner,POINT (8.792054176330566 47.32208251953125),POINT (8.7922154 47.3199178),238.5519582282266
1662023742-805,"Zelglistrasse 11A, 8620 Wetzikon ZH, ZH",47.33001327514648,8.786087989807129,2541998160,Spar,POINT (8.786087989807129 47.33001327514648),POINT (8.7836323 47.3274472),392.52858161745803
1662023704-523,"Bahnhofstrasse 148, 8620 Wetzikon ZH, ZH",47.32648849487305,8.798989295959473,5111142678,Coop,POINT (8.798989295959473 47.32648849487305),POINT (8.7975201 47.326349),164.08469616441656
1662023742-816,"Usterstrasse 44, 8620 Wetzikon ZH, ZH",47.32724380493164,8.794759750366211,5111142678,Coop,POINT (8.794759750366211 47.32724380493164),POINT (8.7975201 47.326349),322.30195657850095
1662023749-858,"Blaketen 6, 8620 Wetzikon ZH, ZH",47.3231086730957,8.799917221069336,5111142678,Coop,POINT (8.799917221069336 47.3231086730957),POINT (8.7975201 47.326349),444.7829931620626
1662023804-1290,"Sandbuckweg 5A, 8157 Dielsdorf, ZH",47.47749328613281,8.456284523010254,427706514,Volg,POINT (8.456284523010254 47.47749328613281),POINT (8.4538601 47.4813558),503.14084750029775
1662023701-499,"Heugasse 2, 8157 Dielsdorf, ZH",47.48674392700195,8.452263832092285,427706514,Volg,POINT (8.452263832092285 47.48674392700195),POINT (8.4538601 47.4813558),618.634057036179
1662023695-438,"Altmoosstrasse 17, 8157 Dielsdorf, ZH",47.47696685791016,8.454099655151367,427706514,Volg,POINT (8.454099655151367 47.47696685791016),POINT (8.4538601 47.4813558),483.45968963397615
1662023786-1133,"Krummibuckweg 9, 8157 Dielsdorf, ZH",47.48097229003906,8.460487365722656,3666285010,Denner,POINT (8.460487365722656 47.48097229003906),POINT (8.4634119 47.4801222),338.3671953788665
1662023745-839,"Mühlestrasse 1, 8157 Dielsdorf, ZH",47.48301696777344,8.453057289123535,427706514,Volg,POINT (8.453057289123535 47.48301696777344),POINT (8.4538601 47.4813558),203.34841185391883
1662023692-410,"8157 Dielsdorf, ZH",47.483341217041016,8.461685180664062,3666285010,Denner,POINT (8.461685180664062 47.483341217041016),POINT (8.4634119 47.4801222),402.7531791257664
1662023758-918,"Krummibuckweg 6, 8157 Dielsdorf, ZH",47.48119354248047,8.459864616394043,3666285010,Denner,POINT (8.459864616394043 47.48119354248047),POINT (8.4634119 47.4801222),411.6637383518934
1662023704-512,"Regensbergstrasse 8, 8157 Dielsdorf, ZH",47.48210144042969,8.452489852905273,427706514,Volg,POINT (8.452489852905273 47.48210144042969),POINT (8.4538601 47.4813558),173.03382665233553
1662023707-544,"Ifangweg 1, 8610 Uster, ZH",47.35888671875,8.71379566192627,269050379,Migros,POINT (8.71379566192627 47.35888671875),POINT (8.7132591 47.3544624),489.9300518097728
1662023786-1135,"Unterbühlenstr. 3B, 8610 Uster, ZH",47.344234466552734,8.707965850830078,354543032,Migros,POINT (8.707965850830078 47.344234466552734),POINT (8.7151342 47.349994),1017.8829941243074
1662023764-971,"Ifangweg 8, 8610 Uster, ZH",47.35796356201172,8.714289665222168,269050379,Migros,POINT (8.714289665222168 47.35796356201172),POINT (8.7132591 47.3544624),401.51769051875664
1662023736-766,"Steigstr. 3, 8610 Uster, ZH",47.34431076049805,8.730061531066895,6763613317,Alnatura,POINT (8.730061531066895 47.34431076049805),POINT (8.7158766 47.3497418),1686.4647195724062
1662023793-1198,"Poststr. 3, 8610 Uster, ZH",47.34947967529297,8.718282699584961,6763613317,Alnatura,POINT (8.718282699584961 47.34947967529297),POINT (8.7158766 47.3497418),269.09278813582284
1662023786-1129,"Meierackerstr. 4, 8610 Uster, ZH",47.36004257202149,8.716106414794922,269050379,Migros,POINT (8.716106414794922 47.36004257202149),POINT (8.7132591 47.3544624),690.2213449413078
1662023745-828,"Gerichtsstrasse 5, 8610 Uster, ZH",47.35003280639648,8.716350555419922,6763613317,Alnatura,POINT (8.716350555419922 47.35003280639648),POINT (8.7158766 47.3497418),61.64791159301842
1662023793-1178,"Florastr. 14, 8610 Uster, ZH",47.34764862060547,8.71961498260498,6763613317,Alnatura,POINT (8.71961498260498 47.34764862060547),POINT (8.7158766 47.3497418),475.10630109819436
1662023761-957,"Oberlandstr. 75, 8610 Uster, ZH",47.35482406616211,8.715861320495605,269050379,Migros,POINT (8.715861320495605 47.35482406616211),POINT (8.7132591 47.3544624),292.0714454927294
1662023707-551,"Ifangweg 7, 8610 Uster, ZH",47.3585090637207,8.714330673217773,269050379,Migros,POINT (8.714330673217773 47.3585090637207),POINT (8.7132591 47.3544624),460.4585543684421
1662023789-1155,"Brunnenwiesenstr. 40, 8610 Uster, ZH",47.3547248840332,8.717199325561523,269050379,Migros,POINT (8.717199325561523 47.3547248840332),POINT (8.7132591 47.3544624),439.08190891623804
1662023758-935,"Aathalstrasse 34, 8610 Uster, ZH",47.34529876708984,8.72988510131836,6763613317,Alnatura,POINT (8.72988510131836 47.34529876708984),POINT (8.7158766 47.3497418),1632.4257115260148
1662023780-1082,"Wermatswilerstrasse 91, 8610 Uster, ZH",47.35652542114258,8.729662895202637,6763613317,Alnatura,POINT (8.729662895202637 47.35652542114258),POINT (8.7158766 47.3497418),1704.662478311273
1662023767-1002,"Breitigasse 5, 8610 Uster, ZH",47.34422302246094,8.734959602355957,6763613317,Alnatura,POINT (8.734959602355957 47.34422302246094),POINT (8.7158766 47.3497418),2206.923750254809
1662023758-925,"Stöcklerstr. 6, 8610 Uster, ZH",47.34308242797852,8.734877586364746,6763613317,Alnatura,POINT (8.734877586364746 47.34308242797852),POINT (8.7158766 47.3497418),2235.9974841522576
1662023717-618,"Zeltweg 23, 8610 Uster, ZH",47.34798812866211,8.709195137023926,354543032,Migros,POINT (8.709195137023926 47.34798812866211),POINT (8.7151342 47.349994),696.2230010940431
1662023795-1201,"Oberlandstr. 75, 8610 Uster, ZH",47.35482406616211,8.715861320495605,269050379,Migros,POINT (8.715861320495605 47.35482406616211),POINT (8.7132591 47.3544624),292.0714454927294
1662023767-1000,"Oberlandstr. 75, 8610 Uster, ZH",47.35482406616211,8.715861320495605,269050379,Migros,POINT (8.715861320495605 47.35482406616211),POINT (8.7132591 47.3544624),292.0714454927294
1662023795-1224,"Alte Blindenholzstrasse 3, 8616 Riedikon, ZH",47.33308029174805,8.712552070617676,6763613317,Alnatura,POINT (8.712552070617676 47.33308029174805),POINT (8.7158766 47.3497418),1868.2275383940332
1662023720-625,"Seestrasse 139, 8610 Uster, ZH",47.34542083740234,8.697589874267578,269050379,Migros,POINT (8.697589874267578 47.34542083740234),POINT (8.7132591 47.3544624),2005.8336601733756
1662023807-1297,"Ifangweg 11, 8610 Uster, ZH",47.35829925537109,8.715127944946289,269050379,Migros,POINT (8.715127944946289 47.35829925537109),POINT (8.7132591 47.3544624),470.13399849392056
1662023807-1299,"Archstrasse 13, 8610 Uster, ZH",47.3439826965332,8.731561660766602,6763613317,Alnatura,POINT (8.731561660766602 47.3439826965332),POINT (8.7158766 47.3497418),1855.4079908878475
1662023758-917,"Bankstrasse 27, 8610 Uster, ZH",47.35177612304688,8.715166091918945,3115568662,Denner,POINT (8.715166091918945 47.35177612304688),POINT (8.7154415 47.3502682),168.54285863640345
1662023758-924,"Breitigasse 9, 8610 Uster, ZH",47.34457015991211,8.7345552444458,6763613317,Alnatura,POINT (8.7345552444458 47.34457015991211),POINT (8.7158766 47.3497418),2153.344097921779
1662023786-1140,"Gschwaderstrasse 40, 8610 Uster, ZH",47.35831832885742,8.713147163391113,269050379,Migros,POINT (8.713147163391113 47.35831832885742),POINT (8.7132591 47.3544624),423.99414570576397
1662023758-929,"Frohbergstr. 7, 8162 Steinmaur, ZH",47.48908615112305,8.448234558105469,427706514,Volg,POINT (8.448234558105469 47.48908615112305),POINT (8.4538601 47.4813558),1055.5576808881258
1662023727-685,"8306 Brüttisellen, ZH",47.42464065551758,8.63316535949707,7796514373,Denner,POINT (8.63316535949707 47.42464065551758),POINT (8.6300135 47.4237905),362.7188570410818
1662023736-749,"Eichstrasse 1, 8306 Brüttisellen, ZH",47.42432022094727,8.63115119934082,7796514373,Denner,POINT (8.63115119934082 47.42432022094727),POINT (8.6300135 47.4237905),139.266714524432
1662023733-725,"Wülflingerstrasse 48, 8400 Winterthur, ZH",47.506534576416016,8.714888572692871,548918217,gazi,POINT (8.714888572692871 47.506534576416016),POINT (8.7130838 47.5066006),200.8127280559498
1662023733-731,"St. Gallerstrasse 42d, 8400 Winterthur, ZH",47.49749755859375,8.738823890686035,1937738037,Denner,POINT (8.738823890686035 47.49749755859375),POINT (8.7402716 47.4948121),336.18873612774473
1662023777-1057,"Wartstr. 28, 8400 Winterthur, ZH",47.50136184692383,8.720966339111328,7380954145,Alnatura,POINT (8.720966339111328 47.50136184692383),POINT (8.7207353 47.499581),197.41054594867921
1662023736-746,"Landvogt-Waser-Strasse 67, 8405 Winterthur, ZH",47.48586654663086,8.765941619873047,1519474175,Denner,POINT (8.765941619873047 47.48586654663086),POINT (8.7631961 47.4851713),314.7037311545814
1662023739-784,"Wingertlistrasse 9, 8405 Winterthur, ZH",47.49017333984375,8.761757850646973,1328945987,Migros,POINT (8.761757850646973 47.49017333984375),POINT (8.7627422 47.485289),547.820992150883
1662023739-775,"Hulfteggstrasse 16, 8400 Winterthur, ZH",47.49134826660156,8.753072738647461,7685095602,Migros-Outlet,POINT (8.753072738647461 47.49134826660156),POINT (8.7506339 47.496109),589.310063679866
1662023774-1040,"Seuzacherstr. 9a, 8400 Winterthur, ZH",47.51836013793945,8.72063159942627,246533376,Migros,POINT (8.72063159942627 47.51836013793945),POINT (8.720071 47.5189532),90.19201165248357
1662023723-659,"Oberseenerstrasse 77, 8405 Winterthur, ZH",47.48025131225586,8.771097183227539,1519474175,Denner,POINT (8.771097183227539 47.48025131225586),POINT (8.7631961 47.4851713),1031.6051708813998
1662023752-873,"Scheideggstrasse 8, 8400 Winterthur, ZH",47.49159622192383,8.750418663024902,7685095602,Migros-Outlet,POINT (8.750418663024902 47.49159622192383),POINT (8.7506339 47.496109),496.5342892305174
1662023742-795,"Bollstrasse 64, 8405 Winterthur, ZH",47.48073196411133,8.759271621704102,1328945987,Migros,POINT (8.759271621704102 47.48073196411133),POINT (8.7627422 47.485289),632.2457794584732
1662023774-1054,"Scherrerstrasse 8, 8400 Winterthur, ZH",47.49733352661133,8.74233627319336,1937738037,Denner,POINT (8.74233627319336 47.49733352661133),POINT (8.7402716 47.4948121),359.86006385905966
1662023698-475,"Zürcherstrasse 57, 8406 Winterthur, ZH",47.49454498291016,8.711798667907715,70656488,Migros,POINT (8.711798667907715 47.49454498291016),POINT (8.7064484 47.4918744),663.3954993400781
1662023736-760,"Tösstalstrasse 174, 8400 Winterthur, ZH",47.488746643066406,8.75119686126709,7685095602,Migros-Outlet,POINT (8.75119686126709 47.488746643066406),POINT (8.7506339 47.496109),811.5446861158854
1662023813-1351,"Bollstrasse 66, 8405 Winterthur, ZH",47.480735778808594,8.759693145751953,1328945987,Migros,POINT (8.759693145751953 47.480735778808594),POINT (8.7627422 47.485289),604.4297621768402
1662023749-855,"Pionierstr. 22, 8400 Winterthur, ZH",47.49772262573242,8.719924926757812,4095400136,Denner,POINT (8.719924926757812 47.49772262573242),POINT (8.7203601 47.4988568),133.71901372735158
1662023752-888,"Zürcherstrasse 54, 8406 Winterthur, ZH",47.49507141113281,8.711730003356934,70656488,Migros,POINT (8.711730003356934 47.49507141113281),POINT (8.7064484 47.4918744),684.3853707860835
1662023761-953,"Jägerstrasse 59, 8406 Winterthur, ZH",47.4949951171875,8.713829040527344,4095400136,Denner,POINT (8.713829040527344 47.4949951171875),POINT (8.7203601 47.4988568),841.1571169947259
1662023758-914,"Endlikerstrasse 106, 8400 Winterthur, ZH",47.48758316040039,8.752320289611816,7685095602,Migros-Outlet,POINT (8.752320289611816 47.48758316040039),POINT (8.7506339 47.496109),955.572292474629
1662023804-1273,"Waldeggstrasse 8, 8405 Winterthur, ZH",47.48252487182617,8.759597778320312,1328945987,Migros,POINT (8.759597778320312 47.48252487182617),POINT (8.7627422 47.485289),463.1710311676315
1662023698-459,"General-Guisan-Strasse 25, 8400 Winterthur, ZH",47.49905014038086,8.733027458190918,4058248551,Migros,POINT (8.733027458190918 47.49905014038086),POINT (8.73193 47.5001167),169.21163647149788
1662023786-1138,"Gottfried Keller-Strasse 77, 8400 Winterthur, ZH",47.50571823120117,8.730652809143066,4058248551,Migros,POINT (8.730652809143066 47.50571823120117),POINT (8.73193 47.5001167),631.811597014454
1662023761-938,"Landvogt-Waser-Strasse 69, 8405 Winterthur, ZH",47.4857292175293,8.766179084777832,1519474175,Denner,POINT (8.766179084777832 47.4857292175293),POINT (8.7631961 47.4851713),337.3120199816062
1662023736-748,"Giesserstrasse 15, 8406 Winterthur, ZH",47.49040603637695,8.714092254638672,70656488,Migros,POINT (8.714092254638672 47.49040603637695),POINT (8.7064484 47.4918744),865.1448276982272
1662023720-646,"Wülflingerstrasse 151a, 8408 Winterthur, ZH",47.50883865356445,8.704948425292969,548919417,Migros,POINT (8.704948425292969 47.50883865356445),POINT (8.7122083 47.5068626),835.9688469245307
1662023707-531,"Zürcherstrasse 57, 8406 Winterthur, ZH",47.49454498291016,8.711798667907715,70656488,Migros,POINT (8.711798667907715 47.49454498291016),POINT (8.7064484 47.4918744),663.3954993400781
1662023717-615,"Florenstrasse 56, 8405 Winterthur, ZH",47.48488998413086,8.773792266845703,1519474175,Denner,POINT (8.773792266845703 47.48488998413086),POINT (8.7631961 47.4851713),1178.6455114733483
1662023771-1015,"Heiniweg 16, 8404 Winterthur, ZH",47.519168853759766,8.764608383178711,4471606841,Migros,POINT (8.764608383178711 47.519168853759766),POINT (8.7717306 47.5042286),1822.8860986200302
1662023795-1211,"Agnesstrasse 2, 8406 Winterthur, ZH",47.494720458984375,8.714877128601074,4095400136,Denner,POINT (8.714877128601074 47.494720458984375),POINT (8.7203601 47.4988568),760.5217561617259
1662023804-1293,"Alte Römerstrasse 24, 8404 Winterthur, ZH",47.50394821166992,8.748668670654297,1289140729,Denner,POINT (8.748668670654297 47.50394821166992),POINT (8.748357500000001 47.5021259),203.24121203079335
1662023761-960,"Sulzbergstrasse 8, 8400 Winterthur, ZH",47.50327301025391,8.7293701171875,4058248551,Migros,POINT (8.7293701171875 47.50327301025391),POINT (8.73193 47.5001167),448.7340443205103
1662023745-829,"Rychenbergstr. 61, 8400 Winterthur, ZH",47.50851440429688,8.729952812194824,4058248551,Migros,POINT (8.729952812194824 47.50851440429688),POINT (8.73193 47.5001167),948.7852142040755
1662023736-745,"Landvogt-Waser-Strasse 69, 8405 Winterthur, ZH",47.4857292175293,8.766179084777832,1519474175,Denner,POINT (8.766179084777832 47.4857292175293),POINT (8.7631961 47.4851713),337.3120199816062
1662023745-826,"Wülflingerstrasse 349, 8408 Winterthur, ZH",47.51451873779297,8.683442115783691,4816412575,Migros,POINT (8.683442115783691 47.51451873779297),POINT (8.693819 47.5107051),1227.6426572401954
1662023789-1154,"Konradstrasse 12, 8400 Winterthur, ZH",47.5020751953125,8.722041130065918,7380954145,Alnatura,POINT (8.722041130065918 47.5020751953125),POINT (8.7207353 47.499581),310.2153410744874
1662023767-997,"Wülflingerstrasse 151a, 8408 Winterthur, ZH",47.50883865356445,8.704948425292969,548919417,Migros,POINT (8.704948425292969 47.50883865356445),POINT (8.7122083 47.5068626),835.9688469245307
1662023717-620,"Else-Züblin-Strasse 112, 8404 Winterthur, ZH",47.50380325317383,8.763983726501465,4471606841,Migros,POINT (8.763983726501465 47.50380325317383),POINT (8.7717306 47.5042286),862.6803480733453
1662023795-1204,"Else-Züblin-Str. 74, 8404 Winterthur, ZH",47.50324630737305,8.765312194824219,4471606841,Migros,POINT (8.765312194824219 47.50324630737305),POINT (8.7717306 47.5042286),721.8118321914191
1662023774-1035,"Kreuzstrasse 7, 8400 Winterthur, ZH",47.50360870361328,8.72900104522705,4058248551,Migros,POINT (8.72900104522705 47.50360870361328),POINT (8.73193 47.5001167),503.35726835832696
1662023798-1234,"Neuwiesenstrasse 31, 8400 Winterthur, ZH",47.5003662109375,8.719480514526367,7380954145,Alnatura,POINT (8.719480514526367 47.5003662109375),POINT (8.7207353 47.499581),164.05948775813306
1662023774-1036,"Kreuzstrasse 7, 8400 Winterthur, ZH",47.50360870361328,8.72900104522705,4058248551,Migros,POINT (8.72900104522705 47.50360870361328),POINT (8.73193 47.5001167),503.35726835832696
1662023813-1349,"Wülflingerstrasse 2, 8400 Winterthur, ZH",47.50292205810547,8.724250793457031,7380954145,Alnatura,POINT (8.724250793457031 47.50292205810547),POINT (8.7207353 47.499581),536.3314286295292
1662023752-868,"Poststrasse 1, 8406 Winterthur, ZH",47.49065780639648,8.705796241760254,70656488,Migros,POINT (8.705796241760254 47.49065780639648),POINT (8.7064484 47.4918744),152.11769187152436
1662023783-1120,"Unterwegli 35, 8404 Winterthur, ZH",47.50488662719727,8.752949714660645,1289140729,Denner,POINT (8.752949714660645 47.50488662719727),POINT (8.748357500000001 47.5021259),593.9687877185436
1662023793-1191,"Else-Züblin-Strasse 73, 8404 Winterthur, ZH",47.50276184082031,8.763882637023926,4471606841,Migros,POINT (8.763882637023926 47.50276184082031),POINT (8.7717306 47.5042286),887.415756917334
1662023707-539,"Hulfteggstr. 19, 8400 Winterthur, ZH",47.49119567871094,8.75192928314209,7685095602,Migros-Outlet,POINT (8.75192928314209 47.49119567871094),POINT (8.7506339 47.496109),558.8574266689828
1662023804-1277,"Holzlegistr. 6, 8408 Winterthur, ZH",47.5120735168457,8.695403099060059,4816412575,Migros,POINT (8.695403099060059 47.5120735168457),POINT (8.693819 47.5107051),231.6258163284342
1662023783-1123,"Else-Züblin-Strasse 77, 8404 Winterthur, ZH",47.50312042236328,8.763753890991211,4471606841,Migros,POINT (8.763753890991211 47.50312042236328),POINT (8.7717306 47.5042286),895.2911890759067
1662023789-1176,"Magazingasse 2, 8400 Winterthur, ZH",47.50620651245117,8.71890640258789,548918217,gazi,POINT (8.71890640258789 47.50620651245117),POINT (8.7130838 47.5066006),648.8911356431178
1662023764-965,"Schaffhauserstrasse 29, 8400 Winterthur, ZH",47.50638198852539,8.723402976989746,7380954145,Alnatura,POINT (8.723402976989746 47.50638198852539),POINT (8.7207353 47.499581),804.1964263668343
1662023698-462,"Schlosshofstrasse 21, 8400 Winterthur, ZH",47.49552917480469,8.711296081542969,70656488,Migros,POINT (8.711296081542969 47.49552917480469),POINT (8.7064484 47.4918744),672.257359273793
1662023807-1304,"Breitestrasse 56, 8400 Winterthur, ZH",47.490455627441406,8.727546691894531,4095400190,ALDI,POINT (8.727546691894531 47.490455627441406),POINT (8.7247563 47.4979013),875.1848562269485
1662023707-534,"Tellstrasse 16a, 8400 Winterthur, ZH",47.50239181518555,8.720512390136719,7380954145,Alnatura,POINT (8.720512390136719 47.50239181518555),POINT (8.7207353 47.499581),309.92787042742293
1662023689-406,"Thurgauerstrasse 2, 8400 Winterthur, ZH",47.49839782714844,8.742392539978027,1937738037,Denner,POINT (8.742392539978027 47.49839782714844),POINT (8.7402716 47.4948121),459.2615588045436
1662023736-758,"Nägelseestrasse 26, 8406 Winterthur, ZH",47.49116516113281,8.702677726745605,70656488,Migros,POINT (8.702677726745605 47.49116516113281),POINT (8.7064484 47.4918744),426.46516979954816
1662023764-977,"Türlimattstr. 1, 8404 Winterthur, ZH",47.50771713256836,8.74938678741455,1289140729,Denner,POINT (8.74938678741455 47.50771713256836),POINT (8.748357500000001 47.5021259),625.0505260005206
1662023723-672,"Wülflingerstrasse 151b, 8408 Winterthur, ZH",47.508567810058594,8.704839706420898,548919417,Migros,POINT (8.704839706420898 47.508567810058594),POINT (8.7122083 47.5068626),840.5134301635272
1662023686-379,"Seenerstrasse 218, 8405 Winterthur, ZH",47.48553466796875,8.758892059326172,1328945987,Migros,POINT (8.758892059326172 47.48553466796875),POINT (8.7627422 47.485289),428.96656353268867
1662023786-1132,"Römerstrasse 52, 8400 Winterthur, ZH",47.50064468383789,8.743654251098633,1289140729,Denner,POINT (8.743654251098633 47.50064468383789),POINT (8.748357500000001 47.5021259),547.7275741730091
1662023764-984,"Unt. Schöntalstrasse 5, 8406 Winterthur, ZH",47.49348831176758,8.708704948425293,70656488,Migros,POINT (8.708704948425293 47.49348831176758),POINT (8.7064484 47.4918744),307.28901717980034
1662023789-1156,"Weberstrasse 91, 8400 Winterthur, ZH",47.49053192138672,8.746732711791992,7685095602,Migros-Outlet,POINT (8.746732711791992 47.49053192138672),POINT (8.7506339 47.496109),750.9033879109126
1662023749-864,"Jägerstrasse 59, 8406 Winterthur, ZH",47.4949951171875,8.713829040527344,4095400136,Denner,POINT (8.713829040527344 47.4949951171875),POINT (8.7203601 47.4988568),841.1571169947259
1662023807-1302,"Sulzbergstrasse 8, 8400 Winterthur, ZH",47.50327301025391,8.7293701171875,4058248551,Migros,POINT (8.7293701171875 47.50327301025391),POINT (8.73193 47.5001167),448.7340443205103
1662023786-1141,"Hündlerstrasse 77, 8406 Winterthur, ZH",47.481689453125,8.69902229309082,9040336566,Denner,POINT (8.69902229309082 47.481689453125),POINT (8.6993803 47.4774267),470.2317351959285
1662023780-1089,"Else-Züblin-Strasse 77, 8404 Winterthur, ZH",47.50312042236328,8.763753890991211,4471606841,Migros,POINT (8.763753890991211 47.50312042236328),POINT (8.7717306 47.5042286),895.2911890759067
1662023764-969,"Grüzefeldstrasse 44, 8400 Winterthur, ZH",47.49379348754883,8.751358032226562,7685095602,Migros-Outlet,POINT (8.751358032226562 47.49379348754883),POINT (8.7506339 47.496109),266.91095055331016
1662023695-450,"Schaffhauserstrasse 32, 8400 Winterthur, ZH",47.50722503662109,8.723393440246582,7380954145,Alnatura,POINT (8.723393440246582 47.50722503662109),POINT (8.7207353 47.499581),890.624646767269
1662023749-863,"Seuzacherstr. 11a, 8400 Winterthur, ZH",47.51870727539063,8.720742225646973,246533376,Migros,POINT (8.720742225646973 47.51870727539063),POINT (8.720071 47.5189532),79.38045197086277
1662023733-741,"General-Guisan-Strasse 43, 8400 Winterthur, ZH",47.49982833862305,8.733386993408203,4058248551,Migros,POINT (8.733386993408203 47.49982833862305),POINT (8.73193 47.5001167),165.0810443683327
1662023777-1059,"Türlimattstr. 3, 8404 Winterthur, ZH",47.50799179077149,8.749725341796875,1289140729,Denner,POINT (8.749725341796875 47.50799179077149),POINT (8.748357500000001 47.5021259),662.3669040265369
1662023783-1105,"Katharina Sulzer Platz 8, 8400 Winterthur, ZH",47.49697113037109,8.717944145202637,4095400136,Denner,POINT (8.717944145202637 47.49697113037109),POINT (8.7203601 47.4988568),339.29718890541454
1662023810-1327,"Hulfteggstrasse 18, 8400 Winterthur, ZH",47.49177169799805,8.75317096710205,4379763119,Alnatura,POINT (8.75317096710205 47.49177169799805),POINT (8.7532306 47.4967387),545.9129999849998
1662023764-976,"Schulergasse 4, 8406 Winterthur, ZH",47.4910888671875,8.705008506774902,70656488,Migros,POINT (8.705008506774902 47.4910888671875),POINT (8.7064484 47.4918744),181.90543769553102
1662023795-1205,"Steiggasse 4, 8400 Winterthur, ZH",47.498043060302734,8.727981567382812,4095400190,ALDI,POINT (8.727981567382812 47.498043060302734),POINT (8.7247563 47.4979013),358.9716532570392
1662023752-885,"Hegifeldstrasse 64, 8404 Winterthur, ZH",47.50727081298828,8.76787281036377,4471606841,Migros,POINT (8.76787281036377 47.50727081298828),POINT (8.7717306 47.5042286),543.8609866445604
1662023739-783,"Espenstr. 73, 8408 Winterthur, ZH",47.50705337524414,8.680699348449707,4816412575,Migros,POINT (8.680699348449707 47.50705337524414),POINT (8.693819 47.5107051),1513.0525862891532
1662023801-1255,"Wingertlistrasse 19, 8405 Winterthur, ZH",47.48936462402344,8.760986328125,1328945987,Migros,POINT (8.760986328125 47.48936462402344),POINT (8.7627422 47.485289),488.6047934503244
1662023742-813,"Reutlingerstr. 17, 8404 Winterthur, ZH",47.52203750610352,8.75655746459961,1289140729,Denner,POINT (8.75655746459961 47.52203750610352),POINT (8.748357500000001 47.5021259),2370.647135215053
1662023767-996,"Claisstrasse 11, 8408 Winterthur, ZH",47.51573181152344,8.685565948486328,4816412575,Migros,POINT (8.685565948486328 47.51573181152344),POINT (8.693819 47.5107051),1071.1940203584966
1662023720-645,"Rümikerstrasse 36, 8409 Winterthur, ZH",47.5040168762207,8.769974708557129,4471606841,Migros,POINT (8.769974708557129 47.5040168762207),POINT (8.7717306 47.5042286),196.62770396183777
1662023758-932,"Seuzacherstr. 9b, 8400 Winterthur, ZH",47.51848220825195,8.719965934753418,246533376,Migros,POINT (8.719965934753418 47.51848220825195),POINT (8.720071 47.5189532),53.06843800989564
1662023695-451,"Rütlistr. 17, 8400 Winterthur, ZH",47.50872802734375,8.72221565246582,7380954145,Alnatura,POINT (8.72221565246582 47.50872802734375),POINT (8.7207353 47.499581),1018.7291216713066
1662023767-986,"Jägerstrasse 59, 8406 Winterthur, ZH",47.4949951171875,8.713829040527344,4095400136,Denner,POINT (8.713829040527344 47.4949951171875),POINT (8.7203601 47.4988568),841.1571169947259
1662023752-884,"Zürcherstrasse 58, 8406 Winterthur, ZH",47.49482345581055,8.711419105529785,70656488,Migros,POINT (8.711419105529785 47.49482345581055),POINT (8.7064484 47.4918744),640.7515732249503
1662023689-396,"Rosentalstrasse 72, 8400 Winterthur, ZH",47.51045227050781,8.723488807678223,246533376,Migros,POINT (8.723488807678223 47.51045227050781),POINT (8.720071 47.5189532),1008.6646009526935
1662023714-600,"Sonnenblickstrasse 23, 8404 Winterthur, ZH",47.516544342041016,8.758272171020508,1289140729,Denner,POINT (8.758272171020508 47.516544342041016),POINT (8.748357500000001 47.5021259),1930.3696394561027
1662023795-1212,"Feldstrasse 16, 8400 Winterthur, ZH",47.50643157958984,8.718624114990234,548918217,gazi,POINT (8.718624114990234 47.50643157958984),POINT (8.7130838 47.5066006),616.334953266836
1662023793-1181,"Schützenstrasse 42, 8400 Winterthur, ZH",47.50262451171875,8.718854904174805,7380954145,Alnatura,POINT (8.718854904174805 47.50262451171875),POINT (8.7207353 47.499581),394.48284998898663
1662023701-491,"Schlossackerstrasse 11, 8404 Winterthur, ZH",47.50833511352539,8.767489433288574,4471606841,Migros,POINT (8.767489433288574 47.50833511352539),POINT (8.7717306 47.5042286),652.7337769117664
1662023807-1301,"Eichliackerstrasse 18, 8406 Winterthur, ZH",47.48926544189453,8.713685989379883,70656488,Migros,POINT (8.713685989379883 47.48926544189453),POINT (8.7064484 47.4918744),854.3452126852939
1662023789-1159,"Else-Züblin-Strasse 73, 8404 Winterthur, ZH",47.50276184082031,8.763882637023926,4471606841,Migros,POINT (8.763882637023926 47.50276184082031),POINT (8.7717306 47.5042286),887.415756917334
1662023758-930,"Bollstrasse 39, 8405 Winterthur, ZH",47.48131942749024,8.760581016540527,1328945987,Migros,POINT (8.760581016540527 47.48131942749024),POINT (8.7627422 47.485289),498.05648890361385
1662023795-1202,"Bettenstrasse 66, 8400 Winterthur, ZH",47.51546478271485,8.716787338256836,246533376,Migros,POINT (8.716787338256836 47.51546478271485),POINT (8.720071 47.5189532),529.4547560545586
1662023723-656,"8409 Winterthur, ZH",47.50626754760742,8.779024124145508,4471606841,Migros,POINT (8.779024124145508 47.50626754760742),POINT (8.7717306 47.5042286),841.3866750280531
1662023801-1257,"Einfangstrasse 13, 8406 Winterthur, ZH",47.491580963134766,8.709972381591797,70656488,Migros,POINT (8.709972381591797 47.491580963134766),POINT (8.7064484 47.4918744),393.17396625943684
1662023733-732,"Hegifeldstrasse 66, 8404 Winterthur, ZH",47.5070686340332,8.767720222473145,4471606841,Migros,POINT (8.767720222473145 47.5070686340332),POINT (8.7717306 47.5042286),544.3037719963644
1662023733-729,"Jägerstrasse 59, 8406 Winterthur, ZH",47.4949951171875,8.713829040527344,4095400136,Denner,POINT (8.713829040527344 47.4949951171875),POINT (8.7203601 47.4988568),841.1571169947259
1662023764-982,"Weststr. 131, 8408 Winterthur, ZH",47.50980758666992,8.705296516418457,548919417,Migros,POINT (8.705296516418457 47.50980758666992),POINT (8.7122083 47.5068626),833.9387229687593
1662023755-902,"Oberfeldstrasse 2, 8408 Winterthur, ZH",47.50580596923828,8.707270622253418,548919417,Migros,POINT (8.707270622253418 47.50580596923828),POINT (8.7122083 47.5068626),561.1933005100449
1662023774-1048,"Robert-Sulzer-Gasse 4, 8400 Winterthur, ZH",47.49491500854492,8.716140747070312,4095400136,Denner,POINT (8.716140747070312 47.49491500854492),POINT (8.7203601 47.4988568),638.6082241307504
1662023730-705,"Tösstalstrasse 345, 8482 Sennhof (Winterthur), ZH",47.46803665161133,8.760699272155762,7684812078,Migros,POINT (8.760699272155762 47.46803665161133),POINT (8.7699768 47.4579651),1513.0402595537425
1662023774-1034,"Kreuzstrasse 7, 8400 Winterthur, ZH",47.50360870361328,8.72900104522705,4058248551,Migros,POINT (8.72900104522705 47.50360870361328),POINT (8.73193 47.5001167),503.35726835832696
1662023745-817,"Riedhofstrasse 58, 8408 Winterthur, ZH",47.51362609863281,8.694538116455078,4816412575,Migros,POINT (8.694538116455078 47.51362609863281),POINT (8.693819 47.5107051),330.8755323805454
1662023804-1284,"Else-Züblin-Strasse 106, 8404 Winterthur, ZH",47.503868103027344,8.764745712280273,4471606841,Migros,POINT (8.764745712280273 47.503868103027344),POINT (8.7717306 47.5042286),777.6938084725446
1662023730-697,"Scheideggstrasse 8, 8400 Winterthur, ZH",47.49159622192383,8.750418663024902,7685095602,Migros-Outlet,POINT (8.750418663024902 47.49159622192383),POINT (8.7506339 47.496109),496.5342892305174
1662023720-644,"Burstwiesenstr. 16, 8606 Greifensee, ZH",47.36891555786133,8.680346488952637,1904401706,Migros,POINT (8.680346488952637 47.36891555786133),POINT (8.6794858 47.3677261),162.03100192882897
1662023714-599,"Burstwiesenstr. 22, 8606 Greifensee, ZH",47.36946487426758,8.679994583129883,1904401706,Migros,POINT (8.679994583129883 47.36946487426758),POINT (8.6794858 47.3677261),199.32577276122288
1662023752-881,"Sandbüelstrasse 44, 8606 Greifensee, ZH",47.37326431274414,8.676733016967773,1904401706,Migros,POINT (8.676733016967773 47.37326431274414),POINT (8.6794858 47.3677261),681.3931212096519
1662023771-1017,"Müllerwis 30, 8606 Greifensee, ZH",47.369266510009766,8.681855201721191,1904401706,Migros,POINT (8.681855201721191 47.369266510009766),POINT (8.6794858 47.3677261),313.18453145689074
1662023736-765,"Burstwiesenstr. 22, 8606 Greifensee, ZH",47.36946487426758,8.679994583129883,1904401706,Migros,POINT (8.679994583129883 47.36946487426758),POINT (8.6794858 47.3677261),199.32577276122288
1662023771-1027,"Müllerwis 25, 8606 Greifensee, ZH",47.37081146240234,8.682324409484863,1904401706,Migros,POINT (8.682324409484863 47.37081146240234),POINT (8.6794858 47.3677261),463.3014908303637
1662023810-1335,"Am Pfisterhölzli 36, 8606 Greifensee, ZH",47.36343765258789,8.69112777709961,1904401706,Migros,POINT (8.69112777709961 47.36343765258789),POINT (8.6794858 47.3677261),1377.6824490227086
1662023739-782,"Bergacherstrasse 4, 8630 Rüti ZH, ZH",47.25069427490234,8.85564136505127,3661375747,Migros-Outlet,POINT (8.85564136505127 47.25069427490234),POINT (8.8528515 47.2540111),478.57803585447726
1662023730-707,"Walderstrasse 103, 8630 Rüti ZH, ZH",47.26651382446289,8.867326736450195,1464394058,Denner,POINT (8.867326736450195 47.26651382446289),POINT (8.853104 47.2599475),1738.2721735194366
1662023689-408,"Widenweg 12, 8630 Rüti ZH, ZH",47.25362396240234,8.85413646697998,3661375747,Migros-Outlet,POINT (8.85413646697998 47.25362396240234),POINT (8.8528515 47.2540111),149.07857980888946
1662023689-407,"Werkstrasse 47, 8630 Rüti ZH, ZH",47.252437591552734,8.853998184204102,3661375747,Migros-Outlet,POINT (8.853998184204102 47.252437591552734),POINT (8.8528515 47.2540111),214.8153917754187
1662023707-548,"Moosstrasse 22, 8630 Rüti ZH, ZH",47.254005432128906,8.855942726135254,3661375747,Migros-Outlet,POINT (8.855942726135254 47.254005432128906),POINT (8.8528515 47.2540111),343.7292274439564
1662023723-663,"Bachtelstrasse 24b, 8630 Rüti ZH, ZH",47.26611328125,8.86687183380127,1464394058,Denner,POINT (8.86687183380127 47.26611328125),POINT (8.853104 47.2599475),1674.0958779921111
1662023723-668,"Werkstrasse 47, 8630 Rüti ZH, ZH",47.252437591552734,8.853998184204102,3661375747,Migros-Outlet,POINT (8.853998184204102 47.252437591552734),POINT (8.8528515 47.2540111),214.8153917754187
1662023739-792,"Frohwiesstrasse 14, 8630 Rüti ZH, ZH",47.26621627807617,8.868329048156738,1464394058,Denner,POINT (8.868329048156738 47.26621627807617),POINT (8.853104 47.2599475),1827.6850321913582
1662023707-540,"Aronenweg 9, 8618 Oetwil am See, ZH",47.27603149414063,8.718671798706055,1555670487,Denner,POINT (8.718671798706055 47.27603149414063),POINT (8.7207864 47.2713439),566.3311792955054
1662023783-1117,"Glärnischstrasse 62, 8618 Oetwil am See, ZH",47.27785873413086,8.720203399658203,1555670487,Denner,POINT (8.720203399658203 47.27785873413086),POINT (8.7207864 47.2713439),718.970588102908
1662023707-537,"Aronenweg 17, 8618 Oetwil am See, ZH",47.275535583496094,8.718412399291992,1555670487,Denner,POINT (8.718412399291992 47.275535583496094),POINT (8.7207864 47.2713439),530.9751265866278
1662023707-538,"Pilatusstrasse 14, 8330 Pfäffikon ZH, ZH",47.364253997802734,8.783860206604004,5507213482,Denner,POINT (8.783860206604004 47.364253997802734),POINT (8.7825528 47.3661864),257.3489703646581
1662023711-561,"Schulstrasse 26a, 8330 Pfäffikon ZH, ZH",47.36679458618164,8.781128883361816,5507213482,Denner,POINT (8.781128883361816 47.36679458618164),POINT (8.7825528 47.3661864),171.86028556375234
1662023698-479,"Obermattstrasse 82, 8330 Pfäffikon ZH, ZH",47.370731353759766,8.782037734985352,301656130,Migros,POINT (8.782037734985352 47.370731353759766),POINT (8.7809413 47.3685372),270.1893230252436
1662023695-439,"Steinackerstrasse 25, 8330 Pfäffikon ZH, ZH",47.37303924560547,8.780903816223145,301656130,Migros,POINT (8.780903816223145 47.37303924560547),POINT (8.7809413 47.3685372),494.7547336243104
1662023686-369,"Schärackerstrasse 15, 8330 Pfäffikon ZH, ZH",47.37131118774414,8.779349327087402,301656130,Migros,POINT (8.779349327087402 47.37131118774414),POINT (8.7809413 47.3685372),352.5088240963746
1662023789-1161,"Nelkenstr. 9, 8330 Pfäffikon ZH, ZH",47.37203598022461,8.784619331359863,301656130,Migros,POINT (8.784619331359863 47.37203598022461),POINT (8.7809413 47.3685372),561.3304678954615
1662023767-1001,"Nelkenstr. 2, 8330 Pfäffikon ZH, ZH",47.37173843383789,8.784454345703125,301656130,Migros,POINT (8.784454345703125 47.37173843383789),POINT (8.7809413 47.3685372),525.6883415148701
1662023736-761,"Tunnelstr. 7, 8330 Pfäffikon ZH, ZH",47.36857604980469,8.781661033630371,301656130,Migros,POINT (8.781661033630371 47.36857604980469),POINT (8.7809413 47.3685372),80.1445199628209
1662023780-1084,"Nelkenstr. 2, 8330 Pfäffikon ZH, ZH",47.37173843383789,8.784454345703125,301656130,Migros,POINT (8.784454345703125 47.37173843383789),POINT (8.7809413 47.3685372),525.6883415148701
1662023793-1179,"Bachtelstrasse 57, 8330 Pfäffikon ZH, ZH",47.36494064331055,8.791268348693848,5507213482,Denner,POINT (8.791268348693848 47.36494064331055),POINT (8.7825528 47.3661864),978.7458290853552
1662023695-442,"Schärackerstrasse 9, 8330 Pfäffikon ZH, ZH",47.371185302734375,8.779633522033691,301656130,Migros,POINT (8.779633522033691 47.371185302734375),POINT (8.7809413 47.3685372),325.315690474469
1662023767-990,"Nelkenstr. 9, 8330 Pfäffikon ZH, ZH",47.37203598022461,8.784619331359863,301656130,Migros,POINT (8.784619331359863 47.37203598022461),POINT (8.7809413 47.3685372),561.3304678954615
1662023717-608,"Tunnelstr. 5, 8330 Pfäffikon ZH, ZH",47.36875915527344,8.780900001525879,301656130,Migros,POINT (8.780900001525879 47.36875915527344),POINT (8.7809413 47.3685372),24.81955743352642
1662023771-1016,"Schulstrasse 12, 8330 Pfäffikon ZH, ZH",47.36713790893555,8.780004501342773,2613273043,Denner,POINT (8.780004501342773 47.36713790893555),POINT (8.7807286 47.3683347),154.20668826451566
1662023795-1214,"Hittnauerstrasse 62, 8330 Pfäffikon ZH, ZH",47.36471557617188,8.796123504638672,5507213482,Denner,POINT (8.796123504638672 47.36471557617188),POINT (8.7825528 47.3661864),1517.6247481759656
1662023707-532,"Hochstrasse 141, 8330 Pfäffikon ZH, ZH",47.36073303222656,8.793621063232422,5507213482,Denner,POINT (8.793621063232422 47.36073303222656),POINT (8.7825528 47.3661864),1368.879111625696
1662023701-497,"Kempttalstrasse 43, 8330 Pfäffikon ZH, ZH",47.36790084838867,8.780043601989746,2613273043,Denner,POINT (8.780043601989746 47.36790084838867),POINT (8.7807286 47.3683347),89.85923126967742
1662023777-1071,"Pilatusstrasse 22, 8330 Pfäffikon ZH, ZH",47.36396408081055,8.783564567565918,5507213482,Denner,POINT (8.783564567565918 47.36396408081055),POINT (8.7825528 47.3661864),268.8809355671948
1662023730-704,"Dorfstrasse 84, 8954 Geroldswil, ZH",47.42408752441406,8.411906242370605,427050153,VOI Migros Partner,POINT (8.411906242370605 47.42408752441406),POINT (8.4115391 47.4214003),298.39712387084955
1662023774-1039,"Dorfstrasse 100, 8954 Geroldswil, ZH",47.424278259277344,8.409123420715332,427050153,VOI Migros Partner,POINT (8.409123420715332 47.424278259277344),POINT (8.4115391 47.4214003),415.17526646163486
1662023723-660,"Brunaustrasse 160, 8951 Fahrweid, ZH",47.412540435791016,8.417913436889648,427050153,VOI Migros Partner,POINT (8.417913436889648 47.412540435791016),POINT (8.4115391 47.4214003),1205.0594839078715
1662023783-1114,"Huebwiesenstrasse 20, 8954 Geroldswil, ZH",47.4210090637207,8.412511825561523,427050153,VOI Migros Partner,POINT (8.412511825561523 47.4210090637207),POINT (8.4115391 47.4214003),116.4091975482528
1662023692-432,"8954 Geroldswil, ZH",47.42545318603516,8.410881042480469,427050153,VOI Migros Partner,POINT (8.410881042480469 47.42545318603516),POINT (8.4115391 47.4214003),451.77806167889287
1662023689-390,"8954 Geroldswil, ZH",47.42545318603516,8.410881042480469,427050153,VOI Migros Partner,POINT (8.410881042480469 47.42545318603516),POINT (8.4115391 47.4214003),451.77806167889287
1662023771-1023,"Soodstrasse 13, 8134 Adliswil, ZH",47.31380462646485,8.526074409484863,1608543477,Denner,POINT (8.526074409484863 47.31380462646485),POINT (8.5243839 47.3123405),247.50247851367783
1662023771-1012,"Rütistr. 28, 8134 Adliswil, ZH",47.30426788330078,8.529253959655762,1608543461,Migros,POINT (8.529253959655762 47.30426788330078),POINT (8.5249665 47.3112966),908.1228376814934
1662023730-720,"Parkweg 10, 8134 Adliswil, ZH",47.32250595092773,8.53007984161377,4375683472,Denner,POINT (8.53007984161377 47.32250595092773),POINT (8.5304726 47.3153273),790.6063972341648
1662023698-473,"Kronenstrasse 3, 8134 Adliswil, ZH",47.311859130859375,8.527588844299316,1608543461,Migros,POINT (8.527588844299316 47.311859130859375),POINT (8.5249665 47.3112966),298.08069869854006
1662023730-719,"Salamanderweg 3, 8134 Adliswil, ZH",47.32252502441406,8.530826568603516,4375683472,Denner,POINT (8.530826568603516 47.32252502441406),POINT (8.5304726 47.3153273),792.47391460976
1662023774-1051,"Breitenstrasse 12, 8134 Adliswil, ZH",47.30633163452149,8.5193452835083,1608543461,Migros,POINT (8.5193452835083 47.30633163452149),POINT (8.5249665 47.3112966),829.931426494451
1662023730-718,"Parkweg 8, 8134 Adliswil, ZH",47.322261810302734,8.53016471862793,4375683472,Denner,POINT (8.53016471862793 47.322261810302734),POINT (8.5304726 47.3153273),763.3203747477437
1662023810-1330,"Oberhusstrasse 24, 8134 Adliswil, ZH",47.29860305786133,8.523846626281738,1608543461,Migros,POINT (8.523846626281738 47.29860305786133),POINT (8.5249665 47.3112966),1401.408209933263
1662023798-1232,"Rainstrasse 10, 8134 Adliswil, ZH",47.32304763793945,8.51756763458252,433905577,Denner,POINT (8.51756763458252 47.32304763793945),POINT (8.5218139 47.3203453),557.8963257800033
1662023695-440,"Im Sihlhof 2, 8134 Adliswil, ZH",47.32122421264648,8.522125244140625,433905577,Denner,POINT (8.522125244140625 47.32122421264648),POINT (8.5218139 47.3203453),102.6648305914718
1662023701-500,"Zelgstrasse 48, 8134 Adliswil, ZH",47.31568908691406,8.517690658569336,8062028222,ALDI,POINT (8.517690658569336 47.31568908691406),POINT (8.5210608 47.3161717),378.482065538076
1662023767-998,"Steinmürlistrasse 42, 8953 Dietikon, ZH",47.40464401245117,8.392952919006348,515963223,Migros,POINT (8.392952919006348 47.40464401245117),POINT (8.4020814 47.4050955),1016.2550733693907
1662023807-1298,"Grünaustrasse 12, 8953 Dietikon, ZH",47.4099235534668,8.403440475463867,2927936198,Migros,POINT (8.403440475463867 47.4099235534668),POINT (8.40508 47.4092106),198.45989757644213
1662023810-1344,"Grünaustrasse 10, 8953 Dietikon, ZH",47.40949249267578,8.403727531433105,2927936198,Migros,POINT (8.403727531433105 47.40949249267578),POINT (8.40508 47.4092106),153.5511822432969
1662023689-387,"Winzerstrasse 17, 8953 Dietikon, ZH",47.40036010742188,8.386734008789062,515963223,Migros,POINT (8.386734008789062 47.40036010742188),POINT (8.4020814 47.4050955),1784.2834908396298
1662023739-779,"Alfred Comte-Strasse 3, 8953 Dietikon, ZH",47.40963745117188,8.406033515930176,2927936198,Migros,POINT (8.406033515930176 47.40963745117188),POINT (8.40508 47.4092106),115.95776785087766
1662023798-1248,"Überlandstr. 26, 8953 Dietikon, ZH",47.40888214111328,8.40406608581543,2927936198,Migros,POINT (8.40406608581543 47.40888214111328),POINT (8.40508 47.4092106),118.39009146108731
1662023739-778,"Bleicherstrasse 43, 8953 Dietikon, ZH",47.40856552124024,8.395078659057617,515963223,Migros,POINT (8.395078659057617 47.40856552124024),POINT (8.4020814 47.4050955),867.1960756549706
1662023783-1106,"Zentralstr. 6, 8953 Dietikon, ZH",47.40494155883789,8.400984764099121,515963223,Migros,POINT (8.400984764099121 47.40494155883789),POINT (8.4020814 47.4050955),123.1105254128885
1662023783-1116,"Steinmürlistrasse 3, 8953 Dietikon, ZH",47.40771484375,8.39243221282959,515963223,Migros,POINT (8.39243221282959 47.40771484375),POINT (8.4020814 47.4050955),1110.9561580280667
1662023771-1031,"Heimstrasse 12, 8953 Dietikon, ZH",47.409934997558594,8.40533447265625,2927936198,Migros,POINT (8.40533447265625 47.409934997558594),POINT (8.40508 47.4092106),84.55904679633744
1662023714-596,"8953 Dietikon, ZH",47.40451431274414,8.402215957641602,515963223,Migros,POINT (8.402215957641602 47.40451431274414),POINT (8.4020814 47.4050955),65.65892756246357
1662023692-430,"Bohnäckerstr. 11, 8955 Oetwil an der Limmat, ZH",47.427955627441406,8.391122817993164,427050153,VOI Migros Partner,POINT (8.391122817993164 47.427955627441406),POINT (8.4115391 47.4214003),2381.959259732144
1662023807-1314,"Webereistrasse 8, 8953 Dietikon, ZH",47.40984725952149,8.404328346252441,2927936198,Migros,POINT (8.404328346252441 47.40984725952149),POINT (8.40508 47.4092106),109.04243741263036
1662023798-1226,"Rebackerstrasse 31, 8955 Oetwil an der Limmat, ZH",47.426002502441406,8.397468566894531,427050153,VOI Migros Partner,POINT (8.397468566894531 47.426002502441406),POINT (8.4115391 47.4214003),1644.4361103363701
1662023795-1215,"Lägernstrasse 20, 8953 Dietikon, ZH",47.40567779541016,8.394124031066895,515963223,Migros,POINT (8.394124031066895 47.40567779541016),POINT (8.4020814 47.4050955),887.1345309390508
1662023714-578,"Limmatwiesenstr. 22, 8955 Oetwil an der Limmat, ZH",47.42788314819336,8.393007278442383,427050153,VOI Migros Partner,POINT (8.393007278442383 47.42788314819336),POINT (8.4115391 47.4214003),2180.5503019796733
1662023786-1134,"Ueberlandstr. 14, 8953 Dietikon, ZH",47.40869522094727,8.40636157989502,2927936198,Migros,POINT (8.40636157989502 47.40869522094727),POINT (8.40508 47.4092106),153.36786241083715
1662023764-967,"Webereistrasse 3, 8953 Dietikon, ZH",47.40999984741211,8.404282569885254,2927936198,Migros,POINT (8.404282569885254 47.40999984741211),POINT (8.40508 47.4092106),124.09565360856097
1662023755-911,"Ueberlandstrasse 125, 8953 Dietikon, ZH",47.409141540527344,8.393057823181152,515963223,Migros,POINT (8.393057823181152 47.409141540527344),POINT (8.4020814 47.4050955),1097.659150161884
1662023793-1200,"Obere Leihofstrasse 13, 8820 Wädenswil, ZH",47.22357177734375,8.666900634765625,7804887261,Volg,POINT (8.666900634765625 47.22357177734375),POINT (8.6699861 47.2274892),550.58559000479
1662023761-955,"Alte Landstrasse 99, 8804 Au ZH, ZH",47.247032165527344,8.634622573852539,1831310604,Migros,POINT (8.634622573852539 47.247032165527344),POINT (8.6375562 47.2353206),1328.1828010023473
1662023783-1125,"Kirchrain 1A, 8824 Schönenberg ZH, ZH",47.1933822631836,8.644906997680664,1210602981,Volg,POINT (8.644906997680664 47.1933822631836),POINT (8.6445691 47.1922277),132.367511602192
1662023798-1235,"Seestrasse 131, 8820 Wädenswil, ZH",47.23108673095703,8.672642707824707,312649536,Coop,POINT (8.672642707824707 47.23108673095703),POINT (8.6725008 47.2300812),111.65217783766279
1662023813-1347,"Rotweg 43, 8820 Wädenswil, ZH",47.22712326049805,8.662622451782227,312649674,Migros,POINT (8.662622451782227 47.22712326049805),POINT (8.6678724 47.2290212),619.9290740559421
1662023780-1085,"Kirchrain 1, 8824 Schönenberg ZH, ZH",47.19331359863281,8.645079612731934,1210602981,Volg,POINT (8.645079612731934 47.19331359863281),POINT (8.6445691 47.1922277),132.18445201169823
1662023783-1121,"Obere Leihofstrasse 11, 8820 Wädenswil, ZH",47.22368240356445,8.66706371307373,7804887261,Volg,POINT (8.66706371307373 47.22368240356445),POINT (8.6699861 47.2274892),529.816151071562
1662023736-750,"8820 Wädenswil, ZH",47.22698211669922,8.662249565124512,312649674,Migros,POINT (8.662249565124512 47.22698211669922),POINT (8.6678724 47.2290212),664.1954934020764
1662023783-1122,"Obere Leihofstrasse 13, 8820 Wädenswil, ZH",47.22357177734375,8.666900634765625,7804887261,Volg,POINT (8.666900634765625 47.22357177734375),POINT (8.6699861 47.2274892),550.58559000479
1662023692-411,"8820 Wädenswil, ZH",47.22698211669922,8.662249565124512,312649674,Migros,POINT (8.662249565124512 47.22698211669922),POINT (8.6678724 47.2290212),664.1954934020764
1662023777-1072,"Obere Leihofstrasse 13, 8820 Wädenswil, ZH",47.22357177734375,8.666900634765625,7804887261,Volg,POINT (8.666900634765625 47.22357177734375),POINT (8.6699861 47.2274892),550.58559000479
1662023720-632,"Am Gulmenbach 10, 8820 Wädenswil, ZH",47.23025894165039,8.656451225280762,312649674,Migros,POINT (8.656451225280762 47.23025894165039),POINT (8.6678724 47.2290212),1277.244416498434
1662023723-661,"8820 Wädenswil, ZH",47.22698211669922,8.662249565124512,312649674,Migros,POINT (8.662249565124512 47.22698211669922),POINT (8.6678724 47.2290212),664.1954934020764
1662023789-1153,"Obere Leihofstrasse 11, 8820 Wädenswil, ZH",47.22368240356445,8.66706371307373,7804887261,Volg,POINT (8.66706371307373 47.22368240356445),POINT (8.6699861 47.2274892),529.816151071562
1662023711-571,"Schönenbergstrasse 30, 8820 Wädenswil, ZH",47.22728729248047,8.669577598571777,7804887261,Volg,POINT (8.669577598571777 47.22728729248047),POINT (8.6699861 47.2274892),50.55564472536307
1662023714-592,"Holzmoosrütistrasse 44a, 8820 Wädenswil, ZH",47.23556900024414,8.650527000427246,1044553874,Coop,POINT (8.650527000427246 47.23556900024414),POINT (8.6556101 47.2421864),921.2194092787647
1662023733-730,"Holzmoosrütistrasse 44a, 8820 Wädenswil, ZH",47.23556900024414,8.650527000427246,1044553874,Coop,POINT (8.650527000427246 47.23556900024414),POINT (8.6556101 47.2421864),921.2194092787647
1662023793-1197,"Obere Leihofstrasse 11, 8820 Wädenswil, ZH",47.22368240356445,8.66706371307373,7804887261,Volg,POINT (8.66706371307373 47.22368240356445),POINT (8.6699861 47.2274892),529.816151071562
1662023789-1158,"Obere Leihofstrasse 9, 8820 Wädenswil, ZH",47.22379684448242,8.667224884033203,7804887261,Volg,POINT (8.667224884033203 47.22379684448242),POINT (8.6699861 47.2274892),508.9291201516348
1662023777-1073,"Seestrasse 147, 8820 Wädenswil, ZH",47.23194885253906,8.67097282409668,312649536,Coop,POINT (8.67097282409668 47.23194885253906),POINT (8.6725008 47.2300812),266.48629972535014
1662023793-1199,"Obere Leihofstrasse 13, 8820 Wädenswil, ZH",47.22357177734375,8.666900634765625,7804887261,Volg,POINT (8.666900634765625 47.22357177734375),POINT (8.6699861 47.2274892),550.58559000479
1662023730-714,"8820 Wädenswil, ZH",47.22698211669922,8.662249565124512,312649674,Migros,POINT (8.662249565124512 47.22698211669922),POINT (8.6678724 47.2290212),664.1954934020764
1662023686-366,"Alte Landstrasse 95, 8804 Au ZH, ZH",47.24683380126953,8.636049270629883,1831310604,Migros,POINT (8.636049270629883 47.24683380126953),POINT (8.6375562 47.2353206),1276.73566503325
1662023695-447,"Mühlestalden 4, 8824 Schönenberg ZH, ZH",47.19911956787109,8.654162406921387,1210602981,Volg,POINT (8.654162406921387 47.19911956787109),POINT (8.6445691 47.1922277),1308.3969916566462
1662023777-1074,"Auerenstrasse 14, 8820 Wädenswil, ZH",47.229774475097656,8.666169166564941,312649674,Migros,POINT (8.666169166564941 47.229774475097656),POINT (8.6678724 47.2290212),206.70124308786987
1662023704-521,"Am Gulmenbach 6, 8820 Wädenswil, ZH",47.23059844970703,8.655874252319336,1044553874,Coop,POINT (8.655874252319336 47.23059844970703),POINT (8.6556101 47.2421864),1274.184172777901
1662023786-1136,"Obere Leihofstrasse 13, 8820 Wädenswil, ZH",47.22357177734375,8.666900634765625,7804887261,Volg,POINT (8.666900634765625 47.22357177734375),POINT (8.6699861 47.2274892),550.58559000479
1662023692-420,"Zürcherstrasse 10, 8193 Eglisau, ZH",47.57310104370117,8.523083686828613,448564067,Migros-Outlet,POINT (8.523083686828613 47.57310104370117),POINT (8.5233655 47.5685953),496.47247635589866
1662023720-641,"Sandgruebstrasse 9, 8193 Eglisau, ZH",47.56932067871094,8.523771286010742,448564067,Migros-Outlet,POINT (8.523771286010742 47.56932067871094),POINT (8.5233655 47.5685953),91.64496287486993
1662023692-418,"Zürcherstrasse 10, 8193 Eglisau, ZH",47.57310104370117,8.523083686828613,448564067,Migros-Outlet,POINT (8.523083686828613 47.57310104370117),POINT (8.5233655 47.5685953),496.47247635589866
1662023711-556,"8193 Eglisau, ZH",47.57356262207031,8.520898818969727,448564067,Migros-Outlet,POINT (8.520898818969727 47.57356262207031),POINT (8.5233655 47.5685953),611.2378053816566
1662023771-1014,"Alte Landstrasse 29c, 8193 Eglisau, ZH",47.57099151611328,8.526036262512207,448564067,Migros-Outlet,POINT (8.526036262512207 47.57099151611328),POINT (8.5233655 47.5685953),397.0243390362581
1662023692-421,"Zürcherstrasse 10, 8193 Eglisau, ZH",47.57310104370117,8.523083686828613,448564067,Migros-Outlet,POINT (8.523083686828613 47.57310104370117),POINT (8.5233655 47.5685953),496.47247635589866
1662023742-797,"8193 Eglisau, ZH",47.57356262207031,8.520898818969727,448564067,Migros-Outlet,POINT (8.520898818969727 47.57356262207031),POINT (8.5233655 47.5685953),611.2378053816566
1662023692-419,"Zürcherstrasse 10, 8193 Eglisau, ZH",47.57310104370117,8.523083686828613,448564067,Migros-Outlet,POINT (8.523083686828613 47.57310104370117),POINT (8.5233655 47.5685953),496.47247635589866
1662023730-701,"Pfruendmattstrasse 11, 8932 Mettmenstetten, ZH",47.24324035644531,8.465059280395508,317283183,Volg,POINT (8.465059280395508 47.24324035644531),POINT (8.4636498 47.2439416),174.67598838204364
1662023813-1346,"Rossauerstrasse 25, 8932 Mettmenstetten, ZH",47.24093246459961,8.467613220214844,317283183,Volg,POINT (8.467613220214844 47.24093246459961),POINT (8.4636498 47.2439416),551.1428178711054
1662023727-673,"Albisstrasse 11, 8932 Mettmenstetten, ZH",47.24422073364258,8.464112281799316,317283183,Volg,POINT (8.464112281799316 47.24422073364258),POINT (8.4636498 47.2439416),59.892385437854934
1662023698-477,"Obere Fischbachstrasse 14, 8932 Mettmenstetten, ZH",47.24623107910156,8.461980819702148,4072132589,Spar,POINT (8.461980819702148 47.24623107910156),POINT (8.4614753 47.2436924),284.8173363709488
1662023698-474,"Goethestr. 26, 8712 Stäfa, ZH",47.24072647094727,8.724349021911621,124140551,Migros,POINT (8.724349021911621 47.24072647094727),POINT (8.7239602 47.2406357),44.37113530367181
1662023739-769,"Allenbergstrasse 25, 8712 Stäfa, ZH",47.2496223449707,8.722038269042969,124141245,Coop,POINT (8.722038269042969 47.2496223449707),POINT (8.724530099999999 47.241531),931.4735928729187
1662023689-386,"Eichstrasse 87a, 8713 Uerikon, ZH",47.23775863647461,8.74950885772705,2602929441,Volg,POINT (8.74950885772705 47.23775863647461),POINT (8.7568672 47.2358625),844.3296122570748
1662023789-1169,"Tödihof 1, 8712 Stäfa, ZH",47.24312210083008,8.724576950073242,124141245,Coop,POINT (8.724576950073242 47.24312210083008),POINT (8.724530099999999 47.241531),174.95274476646196
1662023793-1188,"Bahnhofstrasse 25, 8712 Stäfa, ZH",47.24042510986328,8.72176456451416,124140551,Migros,POINT (8.72176456451416 47.24042510986328),POINT (8.7239602 47.2406357),245.23822169833463
1662023774-1049,"Trübelstrasse 51, 8712 Stäfa, ZH",47.2474479675293,8.723974227905273,124141245,Coop,POINT (8.723974227905273 47.2474479675293),POINT (8.724530099999999 47.241531),653.2550655241638
1662023717-605,"Schwylerstr. 22, 8712 Stäfa, ZH",47.24040985107422,8.737948417663574,236311379,Volg,POINT (8.737948417663574 47.24040985107422),POINT (8.7334701 47.2401091),499.06203066683423
1662023798-1240,"Eichstrasse 34b, 8712 Stäfa, ZH",47.23682022094727,8.740518569946289,236311379,Volg,POINT (8.740518569946289 47.23682022094727),POINT (8.7334701 47.2401091),863.0909540721777
1662023780-1100,"Hauflandweg 18, 8605 Gutenswil, ZH",47.38703155517578,8.718835830688477,366489192,Volg,POINT (8.718835830688477 47.38703155517578),POINT (8.6925652 47.3895254),2933.993173278125
1662023761-937,"Bachtelweg 9, 8604 Volketswil, ZH",47.390411376953125,8.68159294128418,7711197327,Migros,POINT (8.68159294128418 47.390411376953125),POINT (8.6806971 47.3881782),264.9147103276245
1662023810-1329,"Ifangstrasse 33, 8604 Volketswil, ZH",47.39091110229492,8.67777156829834,7711197327,Migros,POINT (8.67777156829834 47.39091110229492),POINT (8.6806971 47.3881782),442.7934351191035
1662023752-883,"Pfäffikerstrasse 119, 8605 Gutenswil, ZH",47.38532638549805,8.717787742614746,366489192,Volg,POINT (8.717787742614746 47.38532638549805),POINT (8.6925652 47.3895254),2842.3400220048698
1662023777-1062,"Ifangstrasse 48, 8604 Volketswil, ZH",47.39152526855469,8.676628112792969,7711197327,Migros,POINT (8.676628112792969 47.39152526855469),POINT (8.6806971 47.3881782),583.1583038926367
1662023723-652,"Sunnebüelstr. 41, 8604 Volketswil, ZH",47.39354705810547,8.681330680847168,7711197327,Migros,POINT (8.681330680847168 47.39354705810547),POINT (8.6806971 47.3881782),594.3409123633422
1662023810-1337,"Säntisweg 5, 8604 Volketswil, ZH",47.395355224609375,8.680856704711914,7711197327,Migros,POINT (8.680856704711914 47.395355224609375),POINT (8.6806971 47.3881782),789.1063372470549
1662023720-635,"Sagirain 2, 8605 Gutenswil, ZH",47.385475158691406,8.715425491333008,366489192,Volg,POINT (8.715425491333008 47.385475158691406),POINT (8.6925652 47.3895254),2580.6368602030734
1662023707-535,"Säntisweg 3, 8604 Volketswil, ZH",47.39485931396485,8.680851936340332,7711197327,Migros,POINT (8.680851936340332 47.39485931396485),POINT (8.6806971 47.3881782),734.5974702886076
1662023777-1061,"Rigiweg 10, 8604 Volketswil, ZH",47.39101409912109,8.682113647460938,7711197327,Migros,POINT (8.682113647460938 47.39101409912109),POINT (8.6806971 47.3881782),349.2601171358501
1662023723-653,"Sunnebüelstr. 25, 8604 Volketswil, ZH",47.392845153808594,8.681580543518066,7711197327,Migros,POINT (8.681580543518066 47.392845153808594),POINT (8.6806971 47.3881782),522.3172492722631
1662023777-1076,"Ifangstrasse 50, 8604 Volketswil, ZH",47.39119338989258,8.676480293273926,7711197327,Migros,POINT (8.676480293273926 47.39119338989258),POINT (8.6806971 47.3881782),574.1991753008014
